# id,name,mesonet,lat,lon,elevation,agl,cit,state,country,active
C7959,CW7959 Stornoway                     UK,APRSWXNET,58.248958587646484,-6.176310062408447,30.0,-9999.0,null,null,null,true
C6622,CW6622 Lucas                      TX US,APRSWXNET,33.08633041381836,-96.59082794189453,186.0,-9999.0,null,null,null,true
C6621,CW6621 Maricopa                   AZ US,APRSWXNET,33.04560089111328,-112.05699920654297,329.1000061035156,-9999.0,null,null,null,true
BBM,BRIDGER BOWL - BRIDGER TOP       MT US AVALANCHE,utmesnet,45.81629943847656,-110.9260025024414,2438.39990234375,-9999.0,null,null,null,true
C7956,CW7956 Sheffield Lake             OH US,APRSWXNET,41.4900016784668,-82.08734893798828,183.0,-9999.0,null,null,null,true
C6623,CW6623 Los Altos Hills            CA US,APRSWXNET,37.45283126831055,-122.16583251953125,19.0,-9999.0,null,null,null,true
DBCM8,DRY BLOOD CREEK                  MT US,RAWS,47.24420166015625,-108.35749816894531,914.4000244140625,-9999.0,null,null,null,true
C6626,CW6626 Nossen                        DE,APRSWXNET,51.055450439453125,13.298569679260254,259.0,-9999.0,null,null,null,true
LWAO2,LITTLE WASHITA #1                OK US SCAN,utmesnet,34.95000076293945,-97.9800033569336,358.1000061035156,-9999.0,null,null,null,true
BBN,BOUNTIFUL BENCH                  UT US KSL,utmesnet,40.88999938964844,-111.8499984741211,1521.0,-9999.0,null,null,null,true
C6625,CW6625 Knoxville                  TN US,APRSWXNET,35.96699905395508,-84.02117156982422,317.0,-9999.0,null,null,null,true
C7955,CW7955 Aberdeen                   NC US,APRSWXNET,35.127830505371094,-79.39949798583984,158.8000030517578,-9999.0,null,null,null,true
MEGT2,MCGREGOR                         TX US,RAWS,31.383899688720703,-97.41280364990234,193.89999389648438,-9999.0,null,null,null,true
AS637,WS5N Fence Lake                   NM US,APRSWXNET,34.62691116333008,-108.5186996459961,2277.0,-9999.0,null,null,null,true
AR307,W6KL Burbank                      CA US,APRSWXNET,34.16999816894531,-118.33300018310547,172.1999969482422,-9999.0,null,null,null,true
GUIN7,GUION FARM                       NC US,RAWS,35.21329879760742,-82.58999633789062,792.5,-9999.0,null,null,null,true
C7960,CW7960 Bedford                    TX US,APRSWXNET,32.851139068603516,-97.10160064697266,184.60000610351562,-9999.0,null,null,null,true
MMOM4,MIO                              MI US,RAWS,44.67610168457031,-84.12830352783203,320.0,-9999.0,null,null,null,true
AS631,ON7BE-5 Lierneux                     BE,APRSWXNET,50.27299880981445,5.848830223083496,446.0,-9999.0,null,null,null,true
AR300,KB8GQ Galloway                    OH US,APRSWXNET,39.91764831542969,-83.15263366699219,249.0,-9999.0,null,null,null,true
AS632,SV3BEF-4 Pirgos                      GR,APRSWXNET,37.670169830322266,21.438169479370117,28.0,-9999.0,null,null,null,true
AR301,N5KUK Norman                      OK US,APRSWXNET,35.220829010009766,-97.41416931152344,371.0,-9999.0,null,null,null,true
AS635,ZL1UBE Dannevirke                    NZ,APRSWXNET,-40.198970794677734,176.11004638671875,209.0,-9999.0,null,null,null,true
AR304,AA6HF-5 Cathedral City            CA US,APRSWXNET,33.8489990234375,-116.48082733154297,134.0,-9999.0,null,null,null,true
AS636,KA8MXN Mason                      OH US,APRSWXNET,39.34049987792969,-84.3083267211914,245.0,-9999.0,null,null,null,true
AS633,VE8WD-1 Yellowknife               NT CA,APRSWXNET,62.453330993652344,-114.41767120361328,100.0,-9999.0,null,null,null,true
AR303,DL1BLU Schortens                     DE,APRSWXNET,53.54716873168945,7.954999923706055,5.0,-9999.0,null,null,null,true
STP5,Alma, WI,gpsmet,44.30390167236328,-91.90299987792969,384.0985107421875,-9999.0,null,null,null,true
C5307,CW5307 Columbia                   MD US,APRSWXNET,39.19599914550781,-76.79566955566406,100.5999984741211,-9999.0,null,null,null,true
C7969,CW7969 Altos de Pipe                 VE,APRSWXNET,10.395509719848633,-66.98650360107422,1714.0,-9999.0,null,null,null,true
DYER,DYER - WALLACE FARMS             NV US DRI,utmesnet,37.60609817504883,-117.98860931396484,1488.300048828125,-9999.0,null,null,null,true
ELKC2,ELK RIVER                        CO US SNOTEL,utmesnet,40.849998474121094,-106.97000122070312,2651.800048828125,-9999.0,null,null,null,true
C5300,CW5300 Wellington                    NZ,APRSWXNET,-41.203330993652344,174.79971313476562,200.0,-9999.0,null,null,null,true
C7963,CW7963 Bergamo                       IT,APRSWXNET,45.83332824707031,9.666669845581055,358.0,-9999.0,null,null,null,true
C5302,CW5302 Roseburg                   OR US,APRSWXNET,43.224998474121094,-123.38133239746094,125.0,-9999.0,null,null,null,true
C5301,CW5301 Brockport                  NY US,APRSWXNET,43.21332931518555,-77.97132873535156,156.39999389648438,-9999.0,null,null,null,true
C7962,CW7962 Lewisporte                 NF CA,APRSWXNET,49.20000076293945,-55.099998474121094,5.0,-9999.0,null,null,null,true
C6635,CW6635 Olathe                     KS US,APRSWXNET,38.79999923706055,-94.83167266845703,334.3999938964844,-9999.0,null,null,null,true
BCP,BLACK CROOK PEAK                 UT US TOOELE,utmesnet,39.99004364013672,-112.54368591308594,2827.0,-9999.0,null,null,null,true
ALSA2,PORT ALSWORTH                    AK US,RAWS,60.19580078125,-154.32000732421875,97.80000305175781,-9999.0,null,null,null,true
C7965,CW7965 Palestine                  TX US,APRSWXNET,31.782669067382812,-95.68016815185547,485.0,-9999.0,null,null,null,true
GUIP4,GUILARTE FOREST                  PR US SCAN,utmesnet,18.149999618530273,-66.7699966430664,1019.5999755859375,-9999.0,null,null,null,true
C7966,CW7966 Houghton                   MI US,APRSWXNET,47.12200164794922,-88.56582641601562,215.0,-9999.0,null,null,null,true
AS628,K9SCH Enumclaw                    WA US,APRSWXNET,47.19449996948242,-121.98716735839844,226.0,-9999.0,null,null,null,true
AS629,W7PLZ-3 Litchfield Park           AZ US,APRSWXNET,33.52867889404297,-112.35314178466797,331.0,-9999.0,null,null,null,true
AS626,K3WIL-2 West Chester              PA US,APRSWXNET,39.92033004760742,-75.6395034790039,63.0,-9999.0,null,null,null,true
QHIA3,HOPI                             AZ US,RAWS,35.86249923706055,-110.61499786376953,1707.5,-9999.0,null,null,null,true
AS627,W3QA-2 West Chester               PA US,APRSWXNET,39.97800064086914,-75.6363296508789,128.0,-9999.0,null,null,null,true
AS620,KX4DOR-11 Summerville             SC US,APRSWXNET,33.04199981689453,-80.2103271484375,22.899999618530273,-9999.0,null,null,null,true
AS621,K6TGT Granada Hills               CA US,APRSWXNET,34.299320220947266,-118.51242065429688,436.0,-9999.0,null,null,null,true
AS624,KF6RAL-2 M Hill                   ID US,APRSWXNET,42.32004165649414,-111.28974914550781,1926.0,-9999.0,null,null,null,true
AS625,KF6RAL-5 Chokecherry Hollow       ID US,APRSWXNET,42.024169921875,-111.25499725341797,1841.0,-9999.0,null,null,null,true
AS622,WB0VHW-1 Cathay                   ND US,APRSWXNET,47.57550048828125,-99.41683197021484,486.0,-9999.0,null,null,null,true
AS623,W3JY-2 Malvern                    PA US,APRSWXNET,40.016170501708984,-75.50582885742188,139.0,-9999.0,null,null,null,true
C6605,CW6605 Surfers Paradise          QLD AU,APRSWXNET,-27.988000869750977,153.39332580566406,50.0,-9999.0,null,null,null,true
C7937,CW7937 Preston                    ID US,APRSWXNET,42.092498779296875,-111.87267303466797,1435.0,-9999.0,null,null,null,true
WFPM4,WHITEFISH POINT,MQT-Meso,46.766998291015625,-84.96700286865234,204.89999389648438,-9999.0,null,null,null,true
AS660,N3AO-2 Blacksburg                 VA US,APRSWXNET,37.277828216552734,-80.43250274658203,716.2999877929688,-9999.0,null,null,null,true
AS661,WW6RY Lancaster                   CA US,APRSWXNET,34.777000427246094,-118.27749633789062,751.0,-9999.0,null,null,null,true
C6609,CW6609 Arlington                  MA US,APRSWXNET,42.43183135986328,-71.17157745361328,97.0,-9999.0,null,null,null,true
AR330,KC1EO Hollis                      NH US,APRSWXNET,42.783329010009766,-71.5961685180664,97.5,-9999.0,null,null,null,true
SORI1,SOMSEN RANCH                     ID US SNOTEL,utmesnet,42.95000076293945,-111.36000061035156,2072.60009765625,-9999.0,null,null,null,true
C7930,CW7930 Furlong                    PA US,APRSWXNET,40.27333068847656,-75.07032775878906,97.5,-9999.0,null,null,null,true
C7931,CW7931 Wellsboro                  PA US,APRSWXNET,41.743831634521484,-77.2925033569336,460.20001220703125,-9999.0,null,null,null,true
C7935,CW7935 Portugal                      PT,APRSWXNET,38.6751708984375,-9.163999557495117,10.0,-9999.0,null,null,null,true
CWFO3,CROW FLAT                        OR US,RAWS,43.83330154418945,-118.94999694824219,1563.5999755859375,-9999.0,null,null,null,true
C7933,CW7933 Johnson City               NY US,APRSWXNET,42.104671478271484,-75.96417236328125,266.1000061035156,-9999.0,null,null,null,true
CLFO3,CALIMUS                          OR US,RAWS,42.63140106201172,-121.55970001220703,2020.5,-9999.0,null,null,null,true
AS659,N4APD-1 Altamonte Springs         FL UD,APRSWXNET,28.664329528808594,-81.35900115966797,31.0,-9999.0,null,null,null,true
AR328,N1EO Center Harbor                NH US,APRSWXNET,43.69832992553711,-71.4854965209961,252.39999389648438,-9999.0,null,null,null,true
AR329,KA1RVR Epping                     NH US,APRSWXNET,43.061668395996094,-71.06199645996094,54.599998474121094,-9999.0,null,null,null,true
AWSC1,WASCO 5SW                        CA US HNXWFO,utmesnet,35.54389953613281,-119.4092025756836,83.80000305175781,-9999.0,null,null,null,true
AS653,DG1HVV-3 Oebles-Schlechtewitz        DE,APRSWXNET,51.413780212402344,11.945210456848145,83.0,-9999.0,null,null,null,true
AR323,KF6YUA Sebastopol                 CA US,APRSWXNET,38.38031005859375,-122.82415008544922,70.0999984741211,-9999.0,null,null,null,true
AR320,K6TZ Diablo Peak                  CA US,APRSWXNET,34.029571533203125,-119.78605651855469,757.0999755859375,-9999.0,null,null,null,true
AS651,KE4LOJ Casselberry                FL US,APRSWXNET,28.65781021118164,-81.2856674194336,18.0,-9999.0,null,null,null,true
AR321,K6DJR W.Menlo Park                CA US,APRSWXNET,37.434669494628906,-122.20632934570312,35.099998474121094,-9999.0,null,null,null,true
AS652,KB1MTS Ayer                       MA US,APRSWXNET,42.5483283996582,-71.56082916259766,92.0,-9999.0,null,null,null,true
AS657,WA7OBH Stuart                     FL US,APRSWXNET,27.121170043945312,-80.19532775878906,3.0,-9999.0,null,null,null,true
SDRI4,Des Moines / River Woods               KCCI-TV,snet,41.55788040161133,-93.57745361328125,304.79998779296875,-9999.0,null,null,null,true
AS655,KE3HG-2 Pottstown                 PA US,APRSWXNET,40.224998474121094,-75.65450286865234,74.0,-9999.0,null,null,null,true
AS656,KB0NLY-3 Tyler                    MN US,APRSWXNET,44.27682876586914,-96.12982940673828,528.2000122070312,-9999.0,null,null,null,true
C6617,CW6617 Sandhurst                     UK,APRSWXNET,51.352169036865234,-0.773829996585846,83.0,-9999.0,null,null,null,true
C7949,CW7949 Aalborg                       DK,APRSWXNET,57.03499984741211,9.908829689025879,11.0,-9999.0,null,null,null,true
C7947,CW7947 Shrewswbury                MA US,APRSWXNET,42.25144958496094,-71.72335815429688,116.0,-9999.0,null,null,null,true
CHKF1,CHEKIKA                          FL US,RAWS,25.625,-80.57969665527344,1.5,-9999.0,null,null,null,true
ORRI1,ORCHARD RANGE SITE               ID US SNOTEL,utmesnet,43.31999969482422,-116.0,960.0999755859375,-9999.0,null,null,null,true
C7942,CW7942 Murcia                        ES,APRSWXNET,37.93349838256836,-1.149999976158142,90.0,-9999.0,null,null,null,true
C6611,CW6611 Horsham                    PA US,APRSWXNET,40.18938064575195,-75.17916107177734,99.0,-9999.0,null,null,null,true
C6610,CW6610 Loyalton                   CA US,APRSWXNET,39.67599868774414,-120.24299621582031,1514.0,-9999.0,null,null,null,true
C7940,CW7940 Colona                     IL US,APRSWXNET,41.46950149536133,-90.3604965209961,178.0,-9999.0,null,null,null,true
C6612,CW6612 Cambridge                  MA US,APRSWXNET,42.36029815673828,-71.08936309814453,94.0,-9999.0,null,null,null,true
C7946,CW7946 Malta                      NY US,APRSWXNET,42.97871017456055,-73.71859741210938,123.0,-9999.0,null,null,null,true
C6614,CW6614 Edmonton                   AB CA,APRSWXNET,53.425331115722656,-113.46499633789062,694.0,-9999.0,null,null,null,true
AS648,EB3EBM-1 Tora                        ES,APRSWXNET,41.811500549316406,1.407170057296753,439.0,-9999.0,null,null,null,true
AR317,KV4EE Fort Wayne                  IN US,APRSWXNET,41.15950012207031,-85.13217163085938,243.8000030517578,-9999.0,null,null,null,true
AS649,KC0PCQ Blue Springs               MO US,APRSWXNET,39.02267074584961,-94.29949951171875,262.0,-9999.0,null,null,null,true
TRDF1,Trident Pier, FL,NOS-NWLON,28.415000915527344,-80.59300231933594,0.0,-9999.0,null,null,null,true
LSFC1,LSF LAS FLORES                   CA US,RAWS,33.28889846801758,-117.43890380859375,30.5,-9999.0,null,null,null,true
AS642,WD4LUQ Dallas                     GA US,APRSWXNET,33.947669982910156,-84.84400177001953,286.5,-9999.0,null,null,null,true
WTHS1,WITHERBEE                        SC US,RAWS,33.159698486328125,-79.83059692382812,18.0,-9999.0,null,null,null,true
AS643,KB9SOE Corydon                    IN US,APRSWXNET,38.20859146118164,-86.11199188232422,203.0,-9999.0,null,null,null,true
AS640,N1JKL Littleton                   MA US,APRSWXNET,42.54582977294922,-71.50450134277344,90.0,-9999.0,null,null,null,true
AS641,W3JBS-2 Westtown                  PA US,APRSWXNET,39.95111083984375,-75.51045989990234,105.0,-9999.0,null,null,null,true
AR315,OH6GPB-1 Pietarsaari                 FI,APRSWXNET,63.668331146240234,22.7066707611084,12.0,-9999.0,null,null,null,true
AR316,N7OKG Deer Park                   WA US,APRSWXNET,48.085330963134766,-117.43183135986328,757.4000244140625,-9999.0,null,null,null,true
AS647,EA3DGI-1 Cardona                     ES,APRSWXNET,41.836669921875,1.5373300313949585,930.0,-9999.0,null,null,null,true
MSB5,Bobo, MS,ddmet,34.114498138427734,-90.69000244140625,50.65850067138672,-9999.0,null,null,null,true
AR313,WB6AHC-1 San Jose                 CA US,APRSWXNET,37.21833038330078,-121.85166931152344,81.4000015258789,-9999.0,null,null,null,true
CEDC,CEDARVILLE                       CA US AGRIMET,utmesnet,41.58528137207031,-120.17138671875,1402.0999755859375,-9999.0,null,null,null,true
SSMM8,SOUTH SAWMILL CREEK              MT US,RAWS,47.5619010925293,-107.52860260009766,1002.7999877929688,-9999.0,null,null,null,true
HTV1,Hartsville, TN,ddmet,36.35770034790039,-86.08999633789062,196.89439392089844,-9999.0,null,null,null,true
C7918,CW7918 Gilbert                    AZ US,APRSWXNET,33.260501861572266,-111.73133087158203,400.0,-9999.0,null,null,null,true
ACHC1,CHOWCHILLA                       CA US HNXWFO,utmesnet,37.157501220703125,-120.25,74.69999694824219,-9999.0,null,null,null,true
BALV1,BALL MTN LAKE                          USARMY-COE,HADS,43.13330078125,-72.7667007446289,499.3680114746094,-9999.0,null,null,null,true
PTREY,PT REYES LIGHTHOUSE              CA US DRI,utmesnet,37.99639129638672,-123.02056121826172,160.3000030517578,-9999.0,null,null,null,true
TFRAN,Franklin Falls                   WA US WA DOT,utmesnet,47.42599868774414,-121.43199920654297,829.0999755859375,-9999.0,null,null,null,true
C7911,CW7911 Sebago                     ME US,APRSWXNET,43.879180908203125,-70.63127136230469,89.0,-9999.0,null,null,null,true
LWRT2,SANTA ANA NWR                    TX US,RAWS,26.07859992980957,-98.1572036743164,27.399999618530273,-9999.0,null,null,null,true
SDRC1,SOLDIER MTN                      CA US,RAWS,40.92580032348633,-121.58560180664062,1130.800048828125,-9999.0,null,null,null,true
C7925,CW7925 Holiday Island             AR US,APRSWXNET,36.493831634521484,-93.72250366210938,339.8999938964844,-9999.0,null,null,null,true
GSTO3,GERBER RESERVOIR                 OR US SNOTEL,utmesnet,42.209999084472656,-121.12999725341797,1478.300048828125,-9999.0,null,null,null,true
TMETH,Methow                           WA US WA DOT,utmesnet,48.078399658203125,-120.01129913330078,313.8999938964844,-9999.0,null,null,null,true
MCRU1,MONTE CRISTO                     UT US SNOTEL,utmesnet,41.470001220703125,-111.5,2731.0,-9999.0,null,null,null,true
C7929,CW7929 Yucca Valley               CA US,APRSWXNET,34.102169036865234,-116.385498046875,1105.800048828125,-9999.0,null,null,null,true
BDVA2,BROADVIEW                        AK US,RAWS,60.483299255371094,-149.76669311523438,190.5,-9999.0,null,null,null,true
OXSYZ,SANTA YNEZ                       CA US,utmesnet,34.60829162597656,-120.07318115234375,210.0,-9999.0,null,null,null,true
C7923,CW7923 Albuquerque                NM US,APRSWXNET,35.1510009765625,-106.71900177001953,1593.0,-9999.0,null,null,null,true
C7921,CW7921 New Topsail Beach          NC US,APRSWXNET,34.35749816894531,-77.64116668701172,9.5,-9999.0,null,null,null,true
CLFN2,CALIFORNIA WASH                  NV US LAS VEGAS,utmesnet,36.47999954223633,-114.70999908447266,634.0,-9999.0,null,null,null,true
MSCO,Saco US-2 MP 502.5               MT US MT DOT,utmesnet,48.45138168334961,-107.3016586303711,664.5,-9999.0,null,null,null,true
PTRH1,PTA RANGE 17                     HI US,RAWS,19.745800018310547,-155.6260986328125,1734.300048828125,-9999.0,null,null,null,true
TLST2,Tulia 2NE,WT-Meso,34.542938232421875,-101.7405014038086,1060.0999755859375,-9999.0,null,null,null,true
CSKC1,COOSKIE MOUNTAIN (BLM)           CA US CNRFC,utmesnet,40.26667022705078,-124.25,898.9000244140625,-9999.0,null,null,null,true
IMWN2,IMMIGRATION WASH                 NV US,RAWS,37.91999816894531,-114.16670227050781,1898.9000244140625,-9999.0,null,null,null,true
SOAC1,SODA CREEK                       CA US,RAWS,39.42499923706055,-122.97720336914062,525.7999877929688,-9999.0,null,null,null,true
TLBO3,Garibaldi, OR,NOS-NWLON,45.55500030517578,-123.91200256347656,0.0,-9999.0,null,null,null,true
AS617,W8GUC Vandalia                    OH US,APRSWXNET,39.8731689453125,-84.20883178710938,310.0,-9999.0,null,null,null,true
TRDA2,Richardson Hwy @ Trims DOT MS MP 218.2,akdotroad,63.41604995727539,-145.74929809570312,755.0,-9999.0,null,null,null,true
AS618,W4DEX-2 Locust                    NC US,APRSWXNET,35.26033020019531,-80.42250061035156,226.0,-9999.0,null,null,null,true
AS615,SR7WXC Lodz                          PL,APRSWXNET,51.70249938964844,19.47949981689453,188.0,-9999.0,null,null,null,true
AS616,SR7WXD Dlutow                        PL,APRSWXNET,51.546329498291016,19.27617073059082,186.0,-9999.0,null,null,null,true
AS619,KB0FRI Newton                     KS US,APRSWXNET,38.041751861572266,-97.34558868408203,440.0,-9999.0,null,null,null,true
MITC2,DEEP CREEK                       CO US,RAWS,39.77360153198242,-107.64689636230469,2866.300048828125,-9999.0,null,null,null,true
MITC1,MITCHELL MEADOW                  CA US CNRFC,utmesnet,36.73332977294922,-118.71666717529297,2956.89990234375,-9999.0,null,null,null,true
TAST2,Tahoka 3NE,WT-Meso,33.20746994018555,-101.78019714355469,946.0999755859375,-9999.0,null,null,null,true
CTNC1,COTTONWOOD NEAR PLATINA 7WSW     CA US CNRFC,utmesnet,40.31694030761719,-122.88111114501953,1036.300048828125,-9999.0,null,null,null,true
SJS,ST. JOHN SUBSTATION              UT US TOOELE,utmesnet,40.36817169189453,-112.45476531982422,1535.0,-9999.0,null,null,null,true
RCDI4,Cedar Rapids (I-380),iadotroad,41.97800064086914,-91.67449951171875,235.8000030517578,-9999.0,null,null,null,true
AS614,KB5DPX Petoskey                   MI US,APRSWXNET,45.361270904541016,-84.95110321044922,228.0,-9999.0,null,null,null,true
AS611,K7MCR Issaquah                    WA US,APRSWXNET,47.54867172241211,-121.93966674804688,367.0,-9999.0,null,null,null,true
AS612,MEARES Cape Meares                OR US,APRSWXNET,45.466068267822266,-123.92098236083984,433.0,-9999.0,null,null,null,true
BIG,Coxs Well,arlfrd,43.29409408569336,-113.18161010742188,1585.0,-9999.0,null,null,null,true
TRUC1,TRUCKEE #2                       CA US SNOTEL,utmesnet,39.29999923706055,-120.18000030517578,1950.699951171875,-9999.0,null,null,null,true
C7904,CW7904 Fremont                    OH US,APRSWXNET,41.3371696472168,-83.20066833496094,201.0,-9999.0,null,null,null,true
NKTA2,Nikiski,nosports,60.68299865722656,-151.3979949951172,0.0,-9999.0,null,null,null,true
C7907,CW7907 Parker                     CO US,APRSWXNET,39.49116897583008,-104.78250122070312,1955.0,-9999.0,null,null,null,true
C7901,CW7901 Springfield                OR US,APRSWXNET,44.02199935913086,-122.87300109863281,402.29998779296875,-9999.0,null,null,null,true
C7902,CW7902 Moose                      WY US,APRSWXNET,43.68729019165039,-110.73532104492188,2022.0,-9999.0,null,null,null,true
AS606,KI4RPM Granite Falls              NC US,APRSWXNET,35.806671142578125,-81.50617218017578,365.0,-9999.0,null,null,null,true
AS607,AC7SG Lake Goodwin                WA US,APRSWXNET,48.16476058959961,-122.26789855957031,114.0,-9999.0,null,null,null,true
BUFN6,Buffalo, NY,NOS-NWLON,42.87699890136719,-78.88999938964844,178.3000030517578,-9999.0,null,null,null,true
AS605,K9JVA Cincinnati                  OH US,APRSWXNET,39.19449996948242,-84.36582946777344,250.0,-9999.0,null,null,null,true
AS608,KB0DWT Pueblo West                CO US,APRSWXNET,38.388671875,-104.66867065429688,1535.5999755859375,-9999.0,null,null,null,true
RSBU1,ROSEBUD                          UT US,RAWS,41.60969924926758,-113.5905990600586,1520.0,-9999.0,null,null,null,true
AS609,K3DAD-1 Sipesville                PA US,APRSWXNET,40.11532974243164,-79.09667205810547,807.7000122070312,-9999.0,null,null,null,true
AS602,WL7CLI Des Moines                 IA US,APRSWXNET,41.62916946411133,-93.53450012207031,259.1000061035156,-9999.0,null,null,null,true
AS603,K0BEN Edina                       MN US,APRSWXNET,44.89316940307617,-93.37149810791016,275.70001220703125,-9999.0,null,null,null,true
BUFN2,BUFFALO CREEK                    NV US,RAWS,40.58190155029297,-119.79000091552734,851.5999755859375,-9999.0,null,null,null,true
MTTC1,MINARETS                         CA US,RAWS,37.40719985961914,-119.34559631347656,1627.5999755859375,-9999.0,null,null,null,true
AS601,K3BM LaPorte                      PA US,APRSWXNET,41.4221305847168,-76.49418640136719,609.0,-9999.0,null,null,null,true
SKY,Skyline                          UT US UTAH DOT,utmesnet,39.63600158691406,-111.3291015625,2843.800048828125,-9999.0,null,null,null,true
SMLI4,Mallard                                KCCI-TV,snet,42.934879302978516,-94.68212127685547,387.1000061035156,-9999.0,null,null,null,true
TS720,CHEYENNE                         OK US,RAWS,35.708099365234375,-99.90470123291016,716.9000244140625,-9999.0,null,null,null,true
JCTN4,NERRS WATER QUALITY SITE JACQUES COUST,nerresmet,39.50469970703125,-74.3364028930664,0.0,-9999.0,null,null,null,true
TS729,BLUE ROCK                        OH US,RAWS,40.00419998168945,-82.08080291748047,195.39999389648438,-9999.0,null,null,null,true
TS724,MISSION CREEK                    ID US,RAWS,46.28810119628906,-116.68779754638672,1036.300048828125,-9999.0,null,null,null,true
TS722,ELKHORN                          MT US,RAWS,46.314701080322266,-111.69670104980469,1831.9000244140625,-9999.0,null,null,null,true
TS723,TOWAOC PORTABLE                  CO US,RAWS,37.209999084472656,-108.73999786376953,1670.5999755859375,-9999.0,null,null,null,true
MKZO3,MCKENZIE                         OR US SNOTEL,utmesnet,44.209999084472656,-121.87000274658203,1463.0,-9999.0,null,null,null,true
C0498,CW0498 Powder Springs             GA US,APRSWXNET,33.885169982910156,-84.6729965209961,300.0,-9999.0,null,null,null,true
C0499,CW0499 Grand Rapids               MN US,APRSWXNET,47.2547492980957,-93.59429931640625,413.8999938964844,-9999.0,null,null,null,true
C0497,CW0497 Washington                 DC US,APRSWXNET,38.95758819580078,-77.03521728515625,77.0,-9999.0,null,null,null,true
BRND1,Brandywine Shl,nosports,38.98699951171875,-75.11299896240234,0.0,-9999.0,null,null,null,true
SLIDE,SLIDE MOUNTAIN                   NV US DRI,utmesnet,39.307220458984375,-119.8838882446289,2941.300048828125,-9999.0,null,null,null,true
C0493,CW0493 Gresham                    OR US,APRSWXNET,45.49633026123047,-122.427001953125,96.0,-9999.0,null,null,null,true
SDAM8,SODA SPRINGS                     MT US,RAWS,45.72890090942383,-108.39669799804688,1225.300048828125,-9999.0,null,null,null,true
MNRW3,Monroe - STH 11 @ STH 69,widotroad,42.61687469482422,-89.63713836669922,327.875,-9999.0,null,null,null,true
ADKA2,Adak Island, AK,NOS-NWLON,51.862998962402344,-176.6320037841797,0.0,-9999.0,null,null,null,true
SMI,SMITHFIELD                       UT US CAMPBELL,utmesnet,41.83769989013672,-111.81590270996094,1450.9000244140625,-9999.0,null,null,null,true
KPTN6,Kings Point, NY,nosports,40.810001373291016,-73.76499938964844,0.0,-9999.0,null,null,null,true
TS732,SHAWNEE                          OH US,RAWS,38.69499969482422,-83.1968994140625,325.5,-9999.0,null,null,null,true
TS730,SOCORRO PORTABLE #2              NM US,RAWS,33.94219970703125,-107.0718994140625,1991.300048828125,-9999.0,null,null,null,true
JOFN1,JOHNSON FARM                     NE US SCAN,utmesnet,40.369998931884766,-101.72000122070312,1018.2999877929688,-9999.0,null,null,null,true
TS737,LAKE WOODRUFF                    FL US,RAWS,29.09939956665039,-81.36689758300781,18.299999237060547,-9999.0,null,null,null,true
SMT,SOUTH MOUNTAIN                   UT US TOOELE,utmesnet,40.45973205566406,-112.40999603271484,1829.0999755859375,-9999.0,null,null,null,true
KMAW,MALDEN                           MO US MODOT,NonFedAWOS,36.60049819946289,-89.99215698242188,89.9000015258789,-9999.0,null,null,null,true
BLK,Blackfoot (MVMS),arlfrd,43.18986511230469,-112.33329772949219,1377.699951171875,-9999.0,null,null,null,true
C0465,CW0465 Sherman                    CT US,APRSWXNET,41.577049255371094,-73.4732666015625,208.0,-9999.0,null,null,null,true
C1795,CW1795 Powell                     WY US,APRSWXNET,44.75846862792969,-108.77680206298828,1337.0,-9999.0,null,null,null,true
C0464,CW0464 Tehachapi                  CA US,APRSWXNET,35.1505012512207,-118.51667022705078,1280.0,-9999.0,null,null,null,true
C1793,CW1793 Castle Rock                CO US,APRSWXNET,39.39466857910156,-104.80549621582031,1981.199951171875,-9999.0,null,null,null,true
C1792,CW1792 Saratoga                   CA US,APRSWXNET,37.27471160888672,-122.02294921875,114.30000305175781,-9999.0,null,null,null,true
SND,SUNDANCE - ARROWHEAD             UT US AVALANCHE,utmesnet,40.368499755859375,-111.59339904785156,2514.89990234375,-9999.0,null,null,null,true
SNC,PARK CITY MUN G.C.               UT US SNOWNET,utmesnet,40.65999984741211,-111.51490020751953,2089.39990234375,-9999.0,null,null,null,true
BLU,Blue Dome,arlfrd7,44.07489776611328,-112.84207916259766,1731.300048828125,-9999.0,null,null,null,true
C1799,CW1799 Colorado Springs           CO US,APRSWXNET,38.92583084106445,-104.76866912841797,2026.9000244140625,-9999.0,null,null,null,true
C0467,CW0467 Duxbury                    MA US,APRSWXNET,42.04814910888672,-70.69035339355469,20.0,-9999.0,null,null,null,true
C1798,CW1798 Logan Village                 AU,APRSWXNET,-27.760000228881836,153.14300537109375,17.0,-9999.0,null,null,null,true
SNI,SNOWBASIN-MID. BOWL              UT US SNOWNET,utmesnet,41.199501037597656,-111.85900115966797,2256.10009765625,-9999.0,null,null,null,true
NCLO3,NEW CRESCENT LAKE                OR US SNOTEL,utmesnet,43.5099983215332,-121.9800033569336,1463.0,-9999.0,null,null,null,true
SNM,SUNDANCE - MID MNT               UT US AVALANCHE,utmesnet,40.3739013671875,-111.59400177001953,2286.89990234375,-9999.0,null,null,null,true
MDDW4,MIDDLE POWDER                    WY US SNOTEL,utmesnet,43.630001068115234,-107.18000030517578,2365.300048828125,-9999.0,null,null,null,true
SNV,DV - RUBY                        UT US,utmesnet,40.61520004272461,-111.51100158691406,2529.800048828125,-9999.0,null,null,null,true
SNX,ANTELOPE ISLAND S.P.             UT US SNOWNET,utmesnet,41.03940963745117,-112.23133087158203,1279.9000244140625,-9999.0,null,null,null,true
TS703,CLASS III 19-C(LUNDYLK)          CA US,RAWS,38.03810119628906,-119.16999816894531,2150.39990234375,-9999.0,null,null,null,true
SDAOK,Angelus Oaks                     CA US SGXWFO,utmesnet,34.143150329589844,-116.9823989868164,1748.9000244140625,-9999.0,null,null,null,true
SNZ,BOUNTIFUL/F G  HOUSE             UT US SNOWNET,utmesnet,40.87540054321289,-111.87159729003906,1450.9000244140625,-9999.0,null,null,null,true
TS700,CLASS III 7-C (INCLINE)          NV US,RAWS,39.2510986328125,-119.96690368652344,2081.199951171875,-9999.0,null,null,null,true
C0476,CW0476 De Graff                   OH US,APRSWXNET,40.326171875,-83.9000015258789,305.0,-9999.0,null,null,null,true
C0472,CW0472 Wheaton                    IL US,APRSWXNET,41.87866973876953,-88.09200286865234,230.0,-9999.0,null,null,null,true
QADW4,QUADRANT                         WY US,RAWS,44.9275016784668,-110.99140167236328,2415.5,-9999.0,null,null,null,true
MCRW4,MILL CREEK                       WY US,RAWS,44.4557991027832,-107.44940185546875,2712.10009765625,-9999.0,null,null,null,true
LAAW3,LAONA                            WI US,RAWS,45.555599212646484,-88.68000030517578,481.6000061035156,-9999.0,null,null,null,true
C0479,CW0479 E. Brunswick               NJ US,APRSWXNET,40.43767166137695,-74.38999938964844,41.0,-9999.0,null,null,null,true
MLLO3,MILLER                           OR US,RAWS,46.022499084472656,-123.27169799804688,314.20001220703125,-9999.0,null,null,null,true
SOL,SOLITUDE                         UT US AVALANCHE,utmesnet,40.608299255371094,-111.60440063476562,3013.89990234375,-9999.0,null,null,null,true
JCTNV,CARSON CITY                      NV US NV DOT,utmesnet,39.119361877441406,-119.77488708496094,1449.5999755859375,-9999.0,null,null,null,true
H300A,Hanford 300 Area                 WA US HMMN,utmesnet,46.36399841308594,-119.28600311279297,118.9000015258789,-9999.0,null,null,null,true
TS717,BLUE MOUNTAIN LAKES              NJ US,RAWS,41.08919906616211,-74.91280364990234,419.1000061035156,-9999.0,null,null,null,true
TS718,FOX TRAIL RIDGE                  ID US,RAWS,44.183101654052734,-115.25689697265625,1833.0999755859375,-9999.0,null,null,null,true
OMTC1,OAK MOUNTAIN                     CA US,RAWS,41.00640106201172,-121.9832992553711,813.7999877929688,-9999.0,null,null,null,true
SCOM6,SCOTT                            MS US SCAN,utmesnet,33.619998931884766,-91.0999984741211,50.29999923706055,-9999.0,null,null,null,true
TS716,DIXIE PORTABLE #4                UT US,RAWS,37.60499954223633,-113.36530303955078,1990.300048828125,-9999.0,null,null,null,true
ZHN1,Honolulu WAAS, HI,gpsmet,21.312999725341797,-157.92100524902344,8.354499816894531,-9999.0,null,null,null,true
TS713,MARTINSBURG                      WV US,RAWS,39.409400939941406,-77.97810363769531,160.3000030517578,-9999.0,null,null,null,true
C0443,CW0443 Sacramento                 CA US,APRSWXNET,38.60866928100586,-121.4123306274414,14.0,-9999.0,null,null,null,true
C1775,CW1775 Lake Ozark                 MO US,APRSWXNET,38.21833038330078,-92.71282958984375,210.0,-9999.0,null,null,null,true
C0444,CW0444 Marlborough                CT US,APRSWXNET,41.63383102416992,-72.43917083740234,145.0,-9999.0,null,null,null,true
TXAB,Abilene, TX,gpsmet,32.503299713134766,-99.75700378417969,516.5671997070312,-9999.0,null,null,null,true
C1773,CW1773 Lisbon                     NH US,APRSWXNET,44.21200180053711,-71.91632843017578,184.39999389648438,-9999.0,null,null,null,true
SOAI4,Osage                                  KIMT-TV,snet,43.277000427246094,-92.8102035522461,353.6000061035156,-9999.0,null,null,null,true
SPC,SPRUCES                          UT US AVALANCHE,utmesnet,40.64099884033203,-111.63600158691406,2256.10009765625,-9999.0,null,null,null,true
PKTN,Pikton, OH,gpsmet,39.0452995300293,-83.02400207519531,176.6208038330078,-9999.0,null,null,null,true
TXAR,Arlington, TX,gpsmet,32.75899887084961,-97.05999755859375,170.0561065673828,-9999.0,null,null,null,true
VIOC1,MANZANITA LAKE                   CA US,RAWS,40.540000915527344,-121.5802993774414,1725.199951171875,-9999.0,null,null,null,true
TXAN,San Antonio, TX,gpsmet,29.491199493408203,-98.5770034790039,288.9869079589844,-9999.0,null,null,null,true
TXAM,Amarillo, TX,gpsmet,35.15359878540039,-101.87799835205078,1123.9791259765625,-9999.0,null,null,null,true
LRCM8,LITTLE ROCK CREEK                MT US,RAWS,46.03779983520508,-114.26249694824219,1678.5,-9999.0,null,null,null,true
TXAU,Austin, TX,gpsmet,30.31170082092285,-97.75599670410156,218.44749450683594,-9999.0,null,null,null,true
C0454,CW0454 Pasadena                   MD US,APRSWXNET,39.143001556396484,-76.55267333984375,23.0,-9999.0,null,null,null,true
C0453,CW0453 Gretna                     NE US,APRSWXNET,41.159671783447266,-96.1916732788086,378.0,-9999.0,null,null,null,true
C0451,CW0451 Taunton                    MA US,APRSWXNET,41.89883041381836,-71.13849639892578,15.199999809265137,-9999.0,null,null,null,true
C1780,CW1780 Wytheville                 VA US,APRSWXNET,36.92250061035156,-81.1728286743164,694.9000244140625,-9999.0,null,null,null,true
OXCAR,Carpinteria                      CA US,utmesnet,34.40288162231445,-119.4574203491211,136.89999389648438,-9999.0,null,null,null,true
BLLN8,LIMA                             ND US,RAWS,48.78919982910156,-102.26860046386719,598.0,-9999.0,null,null,null,true
C0458,CW0458 Rancho Cordova             CA US,APRSWXNET,38.58700180053711,-121.31616973876953,23.0,-9999.0,null,null,null,true
C1789,CW1789 Browns Valley              CA US,APRSWXNET,39.288330078125,-121.33616638183594,399.0,-9999.0,null,null,null,true
C0456,CW0456 Brandon                    MS US,APRSWXNET,32.359500885009766,-89.97132873535156,96.5999984741211,-9999.0,null,null,null,true
C1787,CW1787 Erndtebruck                   DE,APRSWXNET,50.98432922363281,8.252169609069824,530.0,-9999.0,null,null,null,true
BSMK,Bismark, ND,gpsmet,46.82109832763672,-100.81700134277344,572.697998046875,-9999.0,null,null,null,true
WWRC1,WWOLF                            CA US,RAWS,37.8577995300293,-119.66639709472656,2438.39990234375,-9999.0,null,null,null,true
WSEV2,WISE                             VA US,RAWS,36.968101501464844,-82.55970001220703,771.0999755859375,-9999.0,null,null,null,true
TRUN5,TRUCHAS                          NM US,RAWS,36.05889892578125,-105.76940155029297,2542.0,-9999.0,null,null,null,true
C1753,CW1753 Portland                   OR US,APRSWXNET,45.50749969482422,-122.73117065429688,240.0,-9999.0,null,null,null,true
C1752,CW1752 Serpentine                    AU,APRSWXNET,-32.390499114990234,115.94999694824219,33.0,-9999.0,null,null,null,true
TXCC,Corpus Christi, TX,gpsmet,27.740800857543945,-97.44200134277344,16.06279945373535,-9999.0,null,null,null,true
KMHL,MARSHALL                         MO US MODOT,NonFedAWOS,39.095829010009766,-93.20284271240234,237.39999389648438,-9999.0,null,null,null,true
RMAM6,MARION                           MS US,RAWS,31.21139907836914,-89.92250061035156,115.80000305175781,-9999.0,null,null,null,true
VWGI1,VAN WYCK                         ID US SNOTEL,utmesnet,44.380001068115234,-116.33999633789062,1499.5999755859375,-9999.0,null,null,null,true
C0425,CW0425 Saratoga                   CA US,APRSWXNET,37.25416946411133,-121.99949645996094,125.0,-9999.0,null,null,null,true
LCHA2,LITTLE CHENA RIDGE               AK US SNOTEL,utmesnet,65.12000274658203,-146.72999572753906,609.5999755859375,-9999.0,null,null,null,true
C1756,CW1756 Maysville                  WV US,APRSWXNET,39.132999420166016,-79.14910125732422,440.3999938964844,-9999.0,null,null,null,true
TXCH,Childress, TX,gpsmet,34.459598541259766,-100.27799987792969,592.2255249023438,-9999.0,null,null,null,true
NEAW1,Neah Bay, WA,NOS-NWLON,48.36800003051758,-124.61699676513672,0.0,-9999.0,null,null,null,true
NP160,Badger Ave. Br.,nosports,33.76599884033203,-118.23999786376953,0.0,-9999.0,null,null,null,true
NP161,Berth 161,nosports,33.763999938964844,-118.26499938964844,0.0,-9999.0,null,null,null,true
NP164,Port of Tampa,nosports,27.915000915527344,-82.4229965209961,0.0,-9999.0,null,null,null,true
NP165,Ccut, FL,NOS-NWLON,27.663000106811523,-82.61799621582031,0.0,-9999.0,null,null,null,true
NP157,Pier F,nosports,33.74599838256836,-118.21499633789062,0.0,-9999.0,null,null,null,true
C0433,CW0433 Montgomery Village         MD US,APRSWXNET,39.1628303527832,-77.19866943359375,106.0,-9999.0,null,null,null,true
NP158,Pier J,nosports,33.733001708984375,-118.18599700927734,0.0,-9999.0,null,null,null,true
NP159,Pier 400,nosports,33.73500061035156,-118.24099731445312,0.0,-9999.0,null,null,null,true
TXBM,Beaumont, TX,gpsmet,30.161699295043945,-94.18000030517578,15.643699645996094,-9999.0,null,null,null,true
SBLFD,LFCODOR                          CA US,utmesnet,34.43333435058594,-119.8638916015625,38.099998474121094,-9999.0,null,null,null,true
SLIC1,SLIDE CANYON NEAR MONO VILLAGE 5 CA US CNRFC,utmesnet,38.091670989990234,-119.4366683959961,2895.60009765625,-9999.0,null,null,null,true
NPAV2,N PIEDMONT AREC                  VA US SCAN,utmesnet,38.22999954223633,-78.12000274658203,158.5,-9999.0,null,null,null,true
C1768,CW1768 Acton                      ME US,APRSWXNET,43.564170837402344,-70.94082641601562,177.0,-9999.0,null,null,null,true
C1767,CW1767 Salisbury                  MD US,APRSWXNET,38.372310638427734,-75.66285705566406,11.0,-9999.0,null,null,null,true
C1766,CW1766 Santa Rosa                 CA US,APRSWXNET,38.5341682434082,-122.68283081054688,231.60000610351562,-9999.0,null,null,null,true
TXBU,Burnet, TX,gpsmet,30.750499725341797,-98.18399810791016,462.7168884277344,-9999.0,null,null,null,true
BRC,BRIGHTON CREST                   UT US AVALANCHE,utmesnet,40.587249755859375,-111.57676696777344,2895.60009765625,-9999.0,null,null,null,true
TXBS,Bastrop, TX,gpsmet,30.112899780273438,-97.29100036621094,166.26060485839844,-9999.0,null,null,null,true
SBLF1,Seabulk, FL,nosports,27.92300033569336,-82.44499969482422,0.0,-9999.0,null,null,null,true
TXBY,Bryan, TX,gpsmet,30.685800552368164,-96.37100219726562,114.37920379638672,-9999.0,null,null,null,true
MFKC2,MIDDLE FORK CAMP                 CO US SNOTEL,utmesnet,39.79999923706055,-106.02999877929688,2743.199951171875,-9999.0,null,null,null,true
C1731,CW1731 Lenexa                     KS US,APRSWXNET,38.96883010864258,-94.763671875,299.0,-9999.0,null,null,null,true
SLIN2,SLOAN                            NV US LAS VEGAS,utmesnet,35.93000030517578,-115.19000244140625,830.9000244140625,-9999.0,null,null,null,true
BRW,BRIGHTON GREAT WESTERN           UT US AVALANCHE,utmesnet,40.59230041503906,-111.56159973144531,3220.199951171875,-9999.0,null,null,null,true
RSCI4,Sioux City (I-29),iadotroad,42.48320007324219,-96.3905029296875,364.5,-9999.0,null,null,null,true
C0407,CW0407 Silverdale                 WA US,APRSWXNET,47.72932815551758,-122.61817169189453,95.0,-9999.0,null,null,null,true
C1738,CW1738 Munich                        DE,APRSWXNET,48.10633087158203,11.708330154418945,543.0,-9999.0,null,null,null,true
C0405,CW0405 Salisbury                  MA US,APRSWXNET,42.863670349121094,-70.9001693725586,5.0,-9999.0,null,null,null,true
KWHH1,Kawaihae, HI,NOS-NWLON,20.040000915527344,-155.83200073242188,0.0,-9999.0,null,null,null,true
C1735,CW1735 Succasunna                 NJ US,APRSWXNET,40.86750030517578,-74.62999725341797,219.0,-9999.0,null,null,null,true
C1734,CW1734 Newport                       UK,APRSWXNET,50.72032928466797,-1.2703299522399902,15.0,-9999.0,null,null,null,true
C1733,CW1733 S. Miami                   FL US,APRSWXNET,25.70417022705078,-80.32866668701172,4.900000095367432,-9999.0,null,null,null,true
STO,STOCKTON BAR                     UT US TOOELE,utmesnet,40.46492004394531,-112.36544036865234,1573.0999755859375,-9999.0,null,null,null,true
C1732,CW1732 Woonsocket Oak Grove       RI US,APRSWXNET,41.98332977294922,-71.47966766357422,68.0,-9999.0,null,null,null,true
TR474,ANAHUAC PORTABLE                 TX US,RAWS,29.669200897216797,-94.43830108642578,1.5,-9999.0,null,null,null,true
AGCA3,AUDLEY GRADE                     AZ US LAS VEGAS,utmesnet,35.29330062866211,-113.03170013427734,1661.199951171875,-9999.0,null,null,null,true
MBOU,Boulder Hill I-15 MP 170.9       MT US MT DOT,utmesnet,46.323299407958984,-112.06890869140625,1905.0,-9999.0,null,null,null,true
SLIM2,Solomons Island, MD,nosports,38.31700134277344,-76.4520034790039,0.0,-9999.0,null,null,null,true
SBLPD,LOMPODOR                         CA US,utmesnet,34.71908187866211,-120.4317398071289,173.10000610351562,-9999.0,null,null,null,true
C1740,CW1740 Eureka                     IL US,APRSWXNET,40.730831146240234,-89.26966857910156,228.89999389648438,-9999.0,null,null,null,true
TXDE,Denton, TX,gpsmet,33.21049880981445,-97.16300201416016,205.4882049560547,-9999.0,null,null,null,true
MSOO,Sioux Pass MT-16 MP 21           MT US MT DOT,utmesnet,47.91973114013672,-104.32618713378906,755.9000244140625,-9999.0,null,null,null,true
SUG,Sugar City,arlfrd7,43.89657974243164,-111.73760223388672,1492.0,-9999.0,null,null,null,true
TXDA,Dallas, TX,gpsmet,32.79999923706055,-96.6729965209961,186.75369262695312,-9999.0,null,null,null,true
MSOL,Missoula, MT,gpsmet,46.92940139770508,-114.10900115966797,975.0587158203125,-9999.0,null,null,null,true
BUFC1,BULL FLAT                        CA US,RAWS,40.48080062866211,-120.11389923095703,1339.5999755859375,-9999.0,null,null,null,true
TFAUN,Fauntleroy                       WA US WA DOT,utmesnet,47.527000427246094,-122.38999938964844,4.599999904632568,-9999.0,null,null,null,true
C1749,CW1749 Stamford                   TX US,APRSWXNET,33.02000045776367,-99.87200164794922,468.0,-9999.0,null,null,null,true
CAWCP,WOLF CREEK PASS                  CO US CAIC,CAIC_ATM,37.46305847167969,-106.80332946777344,3572.0,-9999.0,null,null,null,true
SUM,Big Southern Summit,arlfrd7,43.39630126953125,-113.02179718017578,2309.199951171875,-9999.0,null,null,null,true
C0416,CW0416 Brooklyn                   NY US,APRSWXNET,40.67182922363281,-73.97722625732422,29.0,-9999.0,null,null,null,true
MSQN2,MESQUITE                         NV US LAS VEGAS,utmesnet,36.84000015258789,-114.05999755859375,599.7999877929688,-9999.0,null,null,null,true
BUFC2,BUFFALO PARK                     CO US SNOTEL,utmesnet,40.22999954223633,-106.5999984741211,2816.39990234375,-9999.0,null,null,null,true
C0415,CW0415 Savage                     MD US,APRSWXNET,39.154170989990234,-76.8280029296875,96.0,-9999.0,null,null,null,true
KPTV2,Kiptopeke, VA,nosports,37.16699981689453,-75.98799896240234,0.0,-9999.0,null,null,null,true
HI050,Hilo, HI,NOS-NWLON,19.729999542236328,-155.05670166015625,0.0,-9999.0,null,null,null,true
LLSC1,LAKE LOIS NEAR SOUTH LAKE TAHOE  CA US CNRFC,utmesnet,38.92499923706055,-120.19693756103516,2545.10009765625,-9999.0,null,null,null,true
MC01,Grand Junction, CO,gpsmet,39.09120178222656,-108.52799987792969,1454.065673828125,-9999.0,null,null,null,true
TUNC1,TUNNEL NEAR CATAGO 15W           CA US CNRFC,utmesnet,36.36000061035156,-118.288330078125,2743.199951171875,-9999.0,null,null,null,true
QBHA3,BLACK HILLS                      AZ US,RAWS,33.08190155029297,-109.95110321044922,1005.7999877929688,-9999.0,null,null,null,true
SVB,SUN VALLEY-BALD MTN              ID US SNOWNET,utmesnet,43.66120147705078,-114.402099609375,2746.300048828125,-9999.0,null,null,null,true
MDEA2,MEADE RIVER NEAR ATKASUK 1N            USGS,HADS,70.48889923095703,-157.41110229492188,15.079999923706055,-9999.0,null,null,null,true
DELD1,Delaware City, DE,nosports,39.58169937133789,-75.58830261230469,0.0,-9999.0,null,null,null,true
C1713,CW1713 Church Gresley                UK,APRSWXNET,52.75632858276367,-1.5548299551010132,50.0,-9999.0,null,null,null,true
UCCC1,YUCCA VALLEY                     CA US,RAWS,34.12329864501953,-116.40779876708984,993.5999755859375,-9999.0,null,null,null,true
C1710,CW1710 Nelson                        NZ,APRSWXNET,-41.2599983215332,173.3000030517578,120.0,-9999.0,null,null,null,true
SVT,TITUS PEAK                       ID US SNOWNET,utmesnet,43.83660125732422,-114.71040344238281,3072.10009765625,-9999.0,null,null,null,true
C1719,CW1719 Key Largo                  FL US,APRSWXNET,25.119169235229492,-80.41883087158203,3.0,-9999.0,null,null,null,true
VIOM8,VIOLETT                          MT US SCAN,utmesnet,48.439998626708984,-111.18000030517578,983.0,-9999.0,null,null,null,true
TFRU1,TELEGRAPH FLAT                   UT US,RAWS,37.19139862060547,-112.02690124511719,1664.199951171875,-9999.0,null,null,null,true
TOLN5,TOLBY                            NM US SNOTEL,utmesnet,36.470001220703125,-105.19000244140625,3102.89990234375,-9999.0,null,null,null,true
C1720,CW1720 Mead                       CO US,APRSWXNET,40.26449966430664,-104.99783325195312,1556.0,-9999.0,null,null,null,true
SJCI4,Jordan Creek                           KCCI-TV,snet,41.55950164794922,-93.75830078125,283.5,-9999.0,null,null,null,true
SWI,SNOWBASIN - WILDCAT              UT US AVALANCHE,utmesnet,41.201499938964844,-111.8635025024414,2347.89990234375,-9999.0,null,null,null,true
LOKI2,ILLINOIS RIVER AT LOCKPORT LOCK & DAM  USARMY-COE,HADS,41.569698333740234,-88.07830047607422,161.40899658203125,-9999.0,null,null,null,true
C1725,CW1725 Dripping Springs           TX US,APRSWXNET,30.211999893188477,-98.04032897949219,360.0,-9999.0,null,null,null,true
C1724,CW1724 Reno                       NV US,APRSWXNET,39.51667022705078,-119.91667175292969,1417.0,-9999.0,null,null,null,true
C1723,CW1723 Woodstock                  IL US,APRSWXNET,42.31216812133789,-88.44866943359375,287.0,-9999.0,null,null,null,true
ARCAD,Arcadia                                FAWN,FAWN,27.219999313354492,-81.83799743652344,21.945999145507812,-9999.0,null,null,null,true
C1721,CW1721 St. Petersburg             FL US,APRSWXNET,27.833330154418945,-82.6500015258789,1.0,-9999.0,null,null,null,true
TR467,CHARLIE                          ND US,RAWS,47.71500015258789,-101.01000213623047,598.5999755859375,-9999.0,null,null,null,true
C1729,CW1729 Cambridge                  MD US,APRSWXNET,38.58032989501953,-76.09382629394531,6.699999809265137,-9999.0,null,null,null,true
NP191,Willoughby Degaussing, VA,nosports,36.981998443603516,-76.3219985961914,0.0,-9999.0,null,null,null,true
NP194,Tpa Cruise Terminal 2, FL,nosports,27.933000564575195,-82.43299865722656,0.0,-9999.0,null,null,null,true
NP195,Oakland Middle Harbor, CA,nosports,37.79999923706055,-122.33000183105469,0.0,-9999.0,null,null,null,true
NP196,Tacoma, WA,nosports,47.266998291015625,-122.41300201416016,0.0,-9999.0,null,null,null,true
GRAS,GRASSY FLATS                     UT US REC,utmesnet,39.3144416809082,-111.32917022705078,2699.89990234375,-9999.0,null,null,null,true
GRAR,Grand Rapids, MI,gpsmet,42.988800048828125,-85.67400360107422,189.54620361328125,-9999.0,null,null,null,true
HSNW3,Hudson - I-94 @ St. Croix River,widotroad,44.963008880615234,-92.75839233398438,225.6999969482422,-9999.0,null,null,null,true
CCLCA,CHOWCHILLA CA                          PSD,MAP,37.11000061035156,-120.23999786376953,76.0,-9999.0,null,null,null,true
HDF1,Hudson Falls, NY,ddmet,43.27080154418945,-73.53900146484375,71.8843994140625,-9999.0,null,null,null,true
ACXS1,NERRS METEOROLOGICAL SITE AT ACE BASIN,nerrespcp,32.55939865112305,-80.45469665527344,1.715000033378601,-9999.0,null,null,null,true
UNCA2,UPPER NOME CREEK                 AK US SNOTEL,utmesnet,65.37000274658203,-146.58999633789062,807.7000122070312,-9999.0,null,null,null,true
SWII4,Winterset Community                    KCCI-TV,snet,41.33341979980469,-94.01480102539062,356.6000061035156,-9999.0,null,null,null,true
BOUN2,BOULDER CITY                     NV US LAS VEGAS,utmesnet,36.0,-114.86000061035156,1049.0999755859375,-9999.0,null,null,null,true
SDRT2,Seadrift, TX,NOS-NWLON,28.40999984741211,-96.70999908447266,0.0,-9999.0,null,null,null,true
LGCUT,LOGAN CAMPBELL HDQ               UT US CAMPBELL,utmesnet,41.765499114990234,-111.8551025390625,1357.9000244140625,-9999.0,null,null,null,true
TXJC,Johnson City, TX,gpsmet,30.26650047302246,-98.39700317382812,371.27850341796875,-9999.0,null,null,null,true
TACAL,TACOMA ALEXANDER AVE             WA US WAAQ,utmesnet,47.27000045776367,-122.37999725341797,3.0,-9999.0,null,null,null,true
BGMW1,BUNCHGRASS MDW                   WA US SNOTEL,utmesnet,48.689998626708984,-117.18000030517578,1524.0,-9999.0,null,null,null,true
DHDI1,DOLLARHIDE SUMMIT                ID US SNOTEL,utmesnet,43.599998474121094,-114.66999816894531,2566.39990234375,-9999.0,null,null,null,true
C1706,CW1706 Cambridge                  MD US,APRSWXNET,38.55500030517578,-76.01116943359375,7.699999809265137,-9999.0,null,null,null,true
BOUNT,BOUNTIFUL                        UT US KSL,utmesnet,40.86029815673828,-111.8644027709961,1539.199951171875,-9999.0,null,null,null,true
C1704,CW1704 Pearce                     AZ US,APRSWXNET,31.9183292388916,-109.90750122070312,1423.4000244140625,-9999.0,null,null,null,true
C1701,CW1701 Solomons                   MD US,APRSWXNET,38.31700134277344,-76.45133209228516,2.0,-9999.0,null,null,null,true
C1700,CW1700 Lohja                         FI,APRSWXNET,60.18383026123047,24.003000259399414,60.0,-9999.0,null,null,null,true
MBRM,Bearmouth I-90 MP 145.8          MT US MT DOT,utmesnet,46.71854019165039,-113.29534149169922,1189.0,-9999.0,null,null,null,true
MBRN,Two Medicine Bridge US-2 MP 210. MT US MT DOT,utmesnet,48.4526481628418,-113.195068359375,1448.0999755859375,-9999.0,null,null,null,true
C1709,CW1709 Kewanee                    IL US,APRSWXNET,41.23714828491211,-89.93477630615234,254.39999389648438,-9999.0,null,null,null,true
C1708,CW1708 Warrington                 PA US,APRSWXNET,40.25199890136719,-75.125,125.0,-9999.0,null,null,null,true
C1707,CW1707 Trimble                    MO US,APRSWXNET,39.474098205566406,-94.57554626464844,297.20001220703125,-9999.0,null,null,null,true
MSTA,US-2 @Stateline US2 MP 667.1     MT US MT DOT,utmesnet,48.13764190673828,-104.04686737060547,640.0999755859375,-9999.0,null,null,null,true
PTAW1,Port Angeles, WA,NOS-NWLON,48.125,-123.44000244140625,0.0,-9999.0,null,null,null,true
SDAPN,Alpine 3W                        CA US SGXWFO,utmesnet,32.831939697265625,-116.8133316040039,387.1000061035156,-9999.0,null,null,null,true
SKFI1,SKULL GULCH                      ID US,RAWS,45.336700439453125,-114.46810150146484,1554.5,-9999.0,null,null,null,true
LWSD1,Lewes, DE,nosports,38.78200149536133,-75.12000274658203,0.0,-9999.0,null,null,null,true
SMLO3,SUMMIT LAKE                      OR US SNOTEL,utmesnet,43.45000076293945,-122.13999938964844,1706.9000244140625,-9999.0,null,null,null,true
KAHNV,KAHLE DRIVE                      NV US NV DOT,utmesnet,38.97018814086914,-119.93492126464844,1922.4000244140625,-9999.0,null,null,null,true
KMPR,MCPHERSON                        KS US SAI,NonFedAWOS,38.352500915527344,-97.69129943847656,456.29998779296875,-9999.0,null,null,null,true
KN23,SIDNEY                           NY US SAI,NonFedAWOS,42.3025016784668,-75.41600036621094,313.0,-9999.0,null,null,null,true
BNRI1,BANNER SUMMIT                    ID US,RAWS,44.30329895019531,-115.2332992553711,2164.10009765625,-9999.0,null,null,null,true
C5278,CW5278 Blair                      NE US,APRSWXNET,41.44166946411133,-96.11966705322266,381.0,-9999.0,null,null,null,true
C5277,CW5277 Fort Myers                 FL US,APRSWXNET,26.51782989501953,-81.95382690429688,3.0,-9999.0,null,null,null,true
TS742,STONY FORK                       VA US,RAWS,37.01110076904297,-81.17859649658203,774.2000122070312,-9999.0,null,null,null,true
C5283,CW5283 Foothill Ranch             CA US,APRSWXNET,33.685001373291016,-117.65583038330078,295.6000061035156,-9999.0,null,null,null,true
NINM8,NINE MILE                        MT US,RAWS,47.07080078125,-114.4021987915039,995.7999877929688,-9999.0,null,null,null,true
C5285,CW5285 Littleton                  CO US,APRSWXNET,39.60599899291992,-105.13482666015625,1777.0,-9999.0,null,null,null,true
RLOT2,Rollover Pass, TX,NOS-NWLON,29.520000457763672,-94.51000213623047,0.0,-9999.0,null,null,null,true
C5284,CW5284 Hamilton                   OH US,APRSWXNET,39.37833023071289,-84.46833038330078,213.0,-9999.0,null,null,null,true
MSWC,Sweeney Creek I-94 MP 112.6      MT US MT DOT,utmesnet,46.26670837402344,-106.30787658691406,791.9000244140625,-9999.0,null,null,null,true
C5286,CW5286 Maurertown                 VA US,APRSWXNET,38.9361686706543,-78.51632690429688,317.0,-9999.0,null,null,null,true
TXLF,Lufkin, TX,gpsmet,31.356399536132812,-94.71800231933594,104.92140197753906,-9999.0,null,null,null,true
ALRN2,ANTELOPE LAKE                    NV US,RAWS,41.6869010925293,-116.76609802246094,1664.199951171875,-9999.0,null,null,null,true
T144T,SB I-5 144th                     WA US WA DOT,utmesnet,47.47480010986328,-122.27040100097656,66.0999984741211,-9999.0,null,null,null,true
OYFO3,HOYT CREEK                       OR US,RAWS,42.97639846801758,-121.4218978881836,1659.5999755859375,-9999.0,null,null,null,true
DRAC2,DRAGON ROAD                      CO US,RAWS,39.915000915527344,-108.88780212402344,1920.199951171875,-9999.0,null,null,null,true
GTXF1,NERRS METEOROLOGICAL SITE AT MATANZAS,nerresmet,29.670799255371094,-81.22419738769531,0.3089999854564667,-9999.0,null,null,null,true
C5289,CW5289 Somerton                   AZ US,APRSWXNET,32.59000015258789,-114.65599822998047,59.29999923706055,-9999.0,null,null,null,true
C5288,CW5288 Wooster                    AR US,APRSWXNET,35.21200180053711,-92.43882751464844,100.5999984741211,-9999.0,null,null,null,true
FBGG1,FORT BENNING                     GA US,RAWS,32.39670181274414,-84.87000274658203,142.3000030517578,-9999.0,null,null,null,true
C5292,CW5292 Miller Place               NY US,APRSWXNET,40.96004867553711,-72.9964599609375,40.0,-9999.0,null,null,null,true
PEFO3,PEBBLE                           OR US,RAWS,44.236698150634766,-121.99500274658203,1051.5999755859375,-9999.0,null,null,null,true
LGCU1,LITTLE GRASSY                    UT US SNOTEL,utmesnet,37.4900016784668,-113.8499984741211,1859.300048828125,-9999.0,null,null,null,true
C5295,CW5295 Flaxville                  MT US,APRSWXNET,48.803829193115234,-105.1719970703125,846.0,-9999.0,null,null,null,true
C5298,CW5298 Napavine                   WA US,APRSWXNET,46.584999084472656,-122.90450286865234,135.3000030517578,-9999.0,null,null,null,true
C5290,CW5290 Maypearl                   TX US,APRSWXNET,32.285648345947266,-97.05843353271484,179.0,-9999.0,null,null,null,true
SKWI4,Kanawha                                KIMT-TV,snet,42.93682098388672,-93.78675079345703,369.0,-9999.0,null,null,null,true
AR270,KF4UXI Southern Shores            NC US,APRSWXNET,36.09550094604492,-75.73282623291016,9.0,-9999.0,null,null,null,true
PTBC1,PETALUMA - LYNCH CK              CA US CNRFC,utmesnet,38.23833084106445,-122.63667297363281,3.0,-9999.0,null,null,null,true
AR274,W4RP Palm Bay                     FL US,APRSWXNET,28.027999877929688,-80.66699981689453,7.0,-9999.0,null,null,null,true
AR272,KG4JPL Hudson                     FL US,APRSWXNET,28.429670333862305,-82.60566711425781,2.0,-9999.0,null,null,null,true
AR273,N1JJX Southington                 CT US,APRSWXNET,41.61616897583008,-72.92217254638672,71.0,-9999.0,null,null,null,true
C5255,CW5255 Winchester                 VA US,APRSWXNET,39.22467041015625,-78.25499725341797,274.29998779296875,-9999.0,null,null,null,true
FTMM8,FLATTOP MTN.                     MT US SNOTEL,utmesnet,48.79999923706055,-113.86000061035156,1920.199951171875,-9999.0,null,null,null,true
C6588,CW6588 Larkspur                   CO US,APRSWXNET,39.25400161743164,-104.99099731445312,2000.0,-9999.0,null,null,null,true
C5257,CW5257 Danville                   KY US,APRSWXNET,37.650001525878906,-84.72467041015625,312.0,-9999.0,null,null,null,true
C6590,CW6590 Twain Harte                CA US,APRSWXNET,38.04174041748047,-120.24475860595703,1112.5,-9999.0,null,null,null,true
TXNA,Navarro, TX,gpsmet,32.04180145263672,-96.53900146484375,130.99879455566406,-9999.0,null,null,null,true
RDYI4,West of Eddyville (HW 137),iadotroad,41.14649963378906,-92.64360046386719,243.5399932861328,-9999.0,null,null,null,true
CZOA2,CHISTOCHINA                      AK US,RAWS,62.56529998779297,-144.66470336914062,701.0,-9999.0,null,null,null,true
C5260,CW5260 Elysburg                   PA US,APRSWXNET,40.89036178588867,-76.5169677734375,301.79998779296875,-9999.0,null,null,null,true
C5263,CW5263 Nieuwerkerk ann Ijssel        NL,APRSWXNET,51.95716857910156,4.615499973297119,3.0,-9999.0,null,null,null,true
C6594,CW6594 Brilon                        DE,APRSWXNET,51.37617111206055,8.591670036315918,500.0,-9999.0,null,null,null,true
TUNIN,Uniontown                        WA US WA DOT,utmesnet,46.5172004699707,-117.08110046386719,815.0,-9999.0,null,null,null,true
C5262,CW5262 Chestnut                   IL US,APRSWXNET,40.018829345703125,-89.19116973876953,188.0,-9999.0,null,null,null,true
C6593,CW6593 Cherry Hill                NJ US,APRSWXNET,39.916168212890625,-75.02082824707031,20.0,-9999.0,null,null,null,true
C6596,CW6596 Brooklin School            ME US,APRSWXNET,44.27172088623047,-68.56928253173828,46.0,-9999.0,null,null,null,true
C5264,CW5264 Elgin                         UK,APRSWXNET,57.64699935913086,-3.328670024871826,26.0,-9999.0,null,null,null,true
AS598,W6GSC-4 Running Springs           CA US,APRSWXNET,34.21567153930664,-117.12149810791016,1899.0,-9999.0,null,null,null,true
AR268,GM7PBB Stonoway                      UK,APRSWXNET,58.505001068115234,-6.266670227050781,56.0,-9999.0,null,null,null,true
AS599,KB1ELT Washburn                   ME US,APRSWXNET,46.8224983215332,-68.1675033569336,180.0,-9999.0,null,null,null,true
AS596,VK3VHF-6 Bairnsdale                  AU,APRSWXNET,-37.603668212890625,149.72366333007812,10.0,-9999.0,null,null,null,true
AS597,K0JGS Kimberling City             MO US,APRSWXNET,36.646148681640625,-93.42996978759766,405.0,-9999.0,null,null,null,true
MAMC1,MAMMOTH PASS NEAR MAMMOTH LAKES  CA US CNRFC,utmesnet,37.61000061035156,-119.0330581665039,2895.60009765625,-9999.0,null,null,null,true
AR269,KC7PHC Orofino                    ID US,APRSWXNET,46.47267150878906,-116.24732971191406,408.0,-9999.0,null,null,null,true
AS590,WB3IGR Easton                     MD US,APRSWXNET,38.77217102050781,-76.04550170898438,16.0,-9999.0,null,null,null,true
RCEC1,ROCK CREEK                       CA US,RAWS,37.55139923095703,-118.66719818115234,2145.800048828125,-9999.0,null,null,null,true
AR260,KY5B Runaway Bay                  TX US,APRSWXNET,33.16450119018555,-97.89466857910156,277.0,-9999.0,null,null,null,true
AS591,KS4KP Keystone Heights            FL US,APRSWXNET,29.851329803466797,-81.89450073242188,10.0,-9999.0,null,null,null,true
QUPA3,UNION PASS                       AZ US,RAWS,35.232200622558594,-114.38189697265625,1072.9000244140625,-9999.0,null,null,null,true
BBY5,Bodega Bay, CA,gpsmet,38.31919860839844,-123.072998046875,14.904999732971191,-9999.0,null,null,null,true
FVST2,Fluvanna 3W,WT-Meso,32.89902877807617,-101.20189666748047,825.0999755859375,-9999.0,null,null,null,true
TACN2,TAYLOR CANYON                    NV US SNOTEL,utmesnet,41.22999954223633,-116.02999877929688,1889.800048828125,-9999.0,null,null,null,true
AR263,WB8YUE Beckley                    WV US,APRSWXNET,37.776668548583984,-81.1729965209961,738.0,-9999.0,null,null,null,true
AR264,K0JDN Phoenix                     AZ US,APRSWXNET,33.721168518066406,-111.99182891845703,526.0,-9999.0,null,null,null,true
AS592,F5YN-5 Carcassonne                   FR,APRSWXNET,43.21099853515625,2.366499900817871,110.0,-9999.0,null,null,null,true
MSWT,Sweetgrass I-15 MP 395.3         MT US MT DOT,utmesnet,48.96017074584961,-111.94071197509766,1058.0,-9999.0,null,null,null,true
AS593,N4DBM-2 Bladenboro                NC US,APRSWXNET,34.60232925415039,-78.8221664428711,36.0,-9999.0,null,null,null,true
DMST2,Dimmitt 2NE,WT-Meso,34.567508697509766,-102.29319763183594,1181.4000244140625,-9999.0,null,null,null,true
TXLU,Lubbock, TX,gpsmet,33.535400390625,-101.84300231933594,980.8140258789062,-9999.0,null,null,null,true
C5268,CW5268 Dawsonville                GA US,APRSWXNET,34.33333969116211,-83.98805236816406,419.3999938964844,-9999.0,null,null,null,true
TXLR,Laredo, TX,gpsmet,27.513900756835938,-99.447998046875,137.6676025390625,-9999.0,null,null,null,true
VLYC1,VALYERMO                         CA US,RAWS,34.44559860229492,-117.8510971069336,1152.0999755859375,-9999.0,null,null,null,true
C5270,CW5270 Harrisburg                 IL US,APRSWXNET,37.66579818725586,-88.57830047607422,128.0,-9999.0,null,null,null,true
C5272,CW5272 Scotts Valley              CA US,APRSWXNET,37.08832931518555,-122.03466796875,382.5,-9999.0,null,null,null,true
C5273,CW5273 Agoura Hills               CA US,APRSWXNET,34.12929916381836,-118.7632064819336,287.0,-9999.0,null,null,null,true
MBVR,Beaver Hill I-94 MP 234.8        MT US MT DOT,utmesnet,47.02198028564453,-104.33000183105469,853.0999755859375,-9999.0,null,null,null,true
AS587,K2SKR Santa Fe                    NM US,APRSWXNET,35.82099914550781,-105.91516876220703,2085.0,-9999.0,null,null,null,true
AS588,KY4KEN Hopinsville                KY US,APRSWXNET,36.921329498291016,-87.56632995605469,164.0,-9999.0,null,null,null,true
MNSI1,MOONSHINE                        ID US SNOTEL,utmesnet,44.40999984741211,-113.4000015258789,2267.699951171875,-9999.0,null,null,null,true
AS586,LCSD Bedford                      IN US,APRSWXNET,38.862831115722656,-86.48249816894531,209.0,-9999.0,null,null,null,true
AR255,KC4YLE Efland                     NC US,APRSWXNET,36.149169921875,-79.1875,201.0,-9999.0,null,null,null,true
AS589,N5OPT Russellville                AR US,APRSWXNET,35.271331787109375,-93.17317199707031,216.39999389648438,-9999.0,null,null,null,true
AR258,KC8HJN Ludington                  MI US,APRSWXNET,43.964168548583984,-86.45449829101562,187.0,-9999.0,null,null,null,true
AR259,KD5CUW-1 Madison                  AL US,APRSWXNET,34.74617004394531,-86.87117004394531,207.3000030517578,-9999.0,null,null,null,true
NINR1,NINIGRET                         RI US,RAWS,41.3828010559082,-71.5813980102539,12.199999809265137,-9999.0,null,null,null,true
MLMA3,LAKE MEAD CITY                   AZ US LAS VEGAS,utmesnet,35.96189880371094,-114.09249877929688,1028.0999755859375,-9999.0,null,null,null,true
SUM1,Summerfield, TX,ddmet,34.82509994506836,-102.51200103759766,1188.51904296875,-9999.0,null,null,null,true
TLTN3,WINNIPESAUKEE RIVER AT TILTON          USARMY-COE,HADS,43.441898345947266,-71.58889770507812,168.97300720214844,-9999.0,null,null,null,true
KMTR,Meeteetse US 120 north of Meeteetsie,wydotroad,44.27000045776367,-108.87000274658203,1816.0,-9999.0,null,null,null,true
C6565,CW6565 Lewiston                   ID US,APRSWXNET,46.42082977294922,-117.02999877929688,237.6999969482422,-9999.0,null,null,null,true
C5234,CW5234 Buckingham                 PA US,APRSWXNET,40.32500076293945,-75.03399658203125,76.0,-9999.0,null,null,null,true
C6564,CW6564 Cottbus                       DE,APRSWXNET,51.752498626708984,14.294670104980469,70.0,-9999.0,null,null,null,true
BRMO3,BIG RED MOUNTAIN                 OR US SNOTEL,utmesnet,42.04999923706055,-122.8499984741211,1905.0,-9999.0,null,null,null,true
GRAA2,GRANITE                          AK US,RAWS,60.727500915527344,-149.28689575195312,156.10000610351562,-9999.0,null,null,null,true
MSR67,Mission Ridge-top                WA US NWAVAL,utmesnet,47.27000045776367,-120.44000244140625,2054.10009765625,-9999.0,null,null,null,true
C6567,CW6567 Gideon                     MO US,APRSWXNET,36.45066833496094,-89.9211196899414,80.0,-9999.0,null,null,null,true
C6566,CW6566 Bullville                  NY US,APRSWXNET,41.53717041015625,-74.33383178710938,146.0,-9999.0,null,null,null,true
NPSF1,Naples, FL,NOS-NWLON,26.1299991607666,-81.80699920654297,0.0,-9999.0,null,null,null,true
SHNN2,SHELDON                          NV US SNOTEL,utmesnet,41.900001525878906,-119.44999694824219,1786.0999755859375,-9999.0,null,null,null,true
FOGO,FOREST GROVE                     OR US AGRIMET,utmesnet,45.55305862426758,-123.08361053466797,54.900001525878906,-9999.0,null,null,null,true
MTCW1,MOUNT CRAG                       WA US SNOTEL,utmesnet,47.7599983215332,-123.02999877929688,1234.4000244140625,-9999.0,null,null,null,true
TXPA,Paris, TX,gpsmet,33.674198150634766,-95.55699920654297,172.12350463867188,-9999.0,null,null,null,true
C6571,CW6571 Booneville                 MS US,APRSWXNET,34.658668518066406,-88.60832977294922,140.0,-9999.0,null,null,null,true
AR288,K5MCL Johnson City                TX US,APRSWXNET,30.305500030517578,-98.39666748046875,371.0,-9999.0,null,null,null,true
CIMN5,CIMARRON                         NM US,RAWS,36.60609817504883,-105.12030029296875,2665.199951171875,-9999.0,null,null,null,true
KN70,PERKASIE                         PA US SAI,NonFedAWOS,40.38916015625,-75.29049682617188,173.10000610351562,-9999.0,null,null,null,true
AR282,VE7IMD-2 Delta                    BC CA,APRSWXNET,49.019168853759766,-123.086669921875,39.0,-9999.0,null,null,null,true
AR283,VE7MKF-3 Surry                    BC CA,APRSWXNET,49.10749816894531,-122.74517059326172,111.0,-9999.0,null,null,null,true
AR284,VE7MMG-1 Crystal Mt.              BC CA,APRSWXNET,49.882171630859375,-119.71016693115234,1111.0,-9999.0,null,null,null,true
C6576,CW6576 Napa                       CA US,APRSWXNET,38.318321228027344,-122.30941772460938,23.0,-9999.0,null,null,null,true
C6575,CW6575 New Fairfield              CT US,APRSWXNET,41.4621696472168,-73.5288314819336,231.60000610351562,-9999.0,null,null,null,true
C6578,CW6578 Henderson                  NV US,APRSWXNET,36.01914978027344,-114.96646118164062,639.0,-9999.0,null,null,null,true
C5247,CW5247 Westchester                IL US,APRSWXNET,41.849998474121094,-87.86666870117188,195.10000610351562,-9999.0,null,null,null,true
C5246,CW5246 Wilton                     ME US,APRSWXNET,44.59806823730469,-70.16999053955078,156.0,-9999.0,null,null,null,true
C5249,CW5249 Blairstown                 NJ US,APRSWXNET,40.96133041381836,-74.97032928466797,204.6999969482422,-9999.0,null,null,null,true
MSR53,Mission Ridge-mid                WA US NWAVAL,utmesnet,47.279998779296875,-120.41000366210938,1615.0999755859375,-9999.0,null,null,null,true
C5250,CW5250 Millwood                   NY US,APRSWXNET,41.182498931884766,-73.81300354003906,147.8000030517578,-9999.0,null,null,null,true
C6581,CW6581 Medford                    MA US,APRSWXNET,42.40782928466797,-71.09632873535156,40.0,-9999.0,null,null,null,true
TAB,Taber,arlfrd7,43.31869888305664,-112.6918716430664,1441.699951171875,-9999.0,null,null,null,true
C5252,CW5252 San Diego                  CA US,APRSWXNET,32.91033172607422,-117.0596694946289,250.0,-9999.0,null,null,null,true
BMOC1,BALD MOUNTAIN NEAR AUBERRY 5E    CA US CNRFC,utmesnet,37.061668395996094,-119.40833282470703,1438.699951171875,-9999.0,null,null,null,true
BMOC2,BLACK MOUNTAIN                   CO US,RAWS,37.861698150634766,-105.2842025756836,2737.699951171875,-9999.0,null,null,null,true
C6585,CW6585 Kimberley                  ON CA,APRSWXNET,44.43333053588867,-80.52082824707031,244.0,-9999.0,null,null,null,true
AR279,VE3COE Kincardine                 ON CA,APRSWXNET,44.1888313293457,-81.63667297363281,198.0,-9999.0,null,null,null,true
AR276,W2RZS Hawthorne                   NY US,APRSWXNET,41.09416961669922,-73.8153305053711,67.0,-9999.0,null,null,null,true
AR277,VE2GAT-2 St.Hyacinthe             QC CA,APRSWXNET,45.616329193115234,-72.95417022705078,26.200000762939453,-9999.0,null,null,null,true
ANGM8,Angel Point                      MT US MSOWFO,utmesnet,47.97999954223633,-114.16999816894531,898.9000244140625,-9999.0,null,null,null,true
TXOD,Odessa, TX,gpsmet,31.873899459838867,-102.31500244140625,883.9321899414062,-9999.0,null,null,null,true
AS561,WB8MZI Gassaway                   WV US,APRSWXNET,38.6619987487793,-80.74749755859375,269.0,-9999.0,null,null,null,true
AS562,W6CQZ-10 Alameda                  CA US,APRSWXNET,37.7755012512207,-122.2655029296875,3.0,-9999.0,null,null,null,true
AR231,KB5GAS-1 Balloon Fiesta           NM US,APRSWXNET,35.185001373291016,-106.59750366210938,1553.0,-9999.0,null,null,null,true
AS560,N5PCE Gassaway                    WV US,APRSWXNET,38.66447067260742,-80.7392578125,362.70001220703125,-9999.0,null,null,null,true
C5211,CW5211 Charlestown                IN US,APRSWXNET,38.466670989990234,-85.58332824707031,194.6999969482422,-9999.0,null,null,null,true
C7876,CW7876 Port Huron                 MI US,APRSWXNET,43.01155090332031,-82.42445373535156,183.0,-9999.0,null,null,null,true
HTRC1,HUNTER MOUNTAIN                  CA US,RAWS,36.5625,-117.47360229492188,2097.0,-9999.0,null,null,null,true
C5214,CW5214 Youngstown                 OH US,APRSWXNET,41.09151077270508,-80.70305633544922,306.0,-9999.0,null,null,null,true
C7874,CW7874 Pine Island                MN US,APRSWXNET,44.19166946411133,-92.66117095947266,291.0,-9999.0,null,null,null,true
C7879,CW7879 St. Louis                  MO US,APRSWXNET,38.69832992553711,-90.48332977294922,167.0,-9999.0,null,null,null,true
C5218,CW5218 Olympia                    WA US,APRSWXNET,46.98167037963867,-122.85333251953125,62.5,-9999.0,null,null,null,true
C7877,CW7877 Merrimack                  NH US,APRSWXNET,42.884761810302734,-71.53598022460938,66.0,-9999.0,null,null,null,true
C7878,CW7878 Laugarvatn                    IS,APRSWXNET,64.24967193603516,-20.66366958618164,99.0,-9999.0,null,null,null,true
C5217,CW5217 Broadway                   NJ US,APRSWXNET,40.755001068115234,-75.0396728515625,286.5,-9999.0,null,null,null,true
MFKU1,MINING FORK                      UT US SNOTEL,utmesnet,40.4900016784668,-112.61000061035156,2438.39990234375,-9999.0,null,null,null,true
KLYW4,KELLY                            WY US,RAWS,42.276100158691406,-110.80609893798828,2581.699951171875,-9999.0,null,null,null,true
AR229,N9RLR Tampa                       FL US,APRSWXNET,27.98716926574707,-82.57949829101562,1.0,-9999.0,null,null,null,true
C7883,CW7883 Poer St Lucie              FL US,APRSWXNET,27.32550048828125,-80.29049682617188,5.0,-9999.0,null,null,null,true
C6552,CW6552 Elk Ridge                  UT US,APRSWXNET,40.004669189453125,-111.68167114257812,1667.0,-9999.0,null,null,null,true
C6551,CW6551 Ontario                    NY US,APRSWXNET,43.24980926513672,-77.27934265136719,111.0,-9999.0,null,null,null,true
C7881,CW7881 Lagrange                   KY US,APRSWXNET,38.46549987792969,-85.41200256347656,243.8000030517578,-9999.0,null,null,null,true
AS554,AC5AN Duncan                      OK US,APRSWXNET,34.537330627441406,-97.94306945800781,368.0,-9999.0,null,null,null,true
AS555,WD4CLZ Hollywood                  FL US,APRSWXNET,26.019500732421875,-80.19000244140625,3.0,-9999.0,null,null,null,true
ARST2,Abernathy 5NE,WT-Meso,33.87538146972656,-101.7572021484375,1015.9000244140625,-9999.0,null,null,null,true
AS552,WT4Q-15 Carmel                    NY US,APRSWXNET,41.43383026123047,-73.7423324584961,236.0,-9999.0,null,null,null,true
AS553,W7FXH Pagosa Springs              CO US,APRSWXNET,37.18611145019531,-106.97416687011719,2230.800048828125,-9999.0,null,null,null,true
AS558,N7NVP Silverdale                  WA US,APRSWXNET,47.657169342041016,-122.65450286865234,52.0,-9999.0,null,null,null,true
AR227,WA5SJW-10 E.Albuquerque           NM US,APRSWXNET,35.175331115722656,-106.48082733154297,1936.0,-9999.0,null,null,null,true
AR228,N0ERG Littleton                   CO US,APRSWXNET,39.625,-104.97949981689453,1658.0,-9999.0,null,null,null,true
AR225,KG6QHS Shingletown                CA US,APRSWXNET,40.47631072998047,-121.98841857910156,647.0,-9999.0,null,null,null,true
AS557,N0NBH Sierra Vista                AZ US,APRSWXNET,31.50227928161621,-110.2603988647461,1416.0,-9999.0,null,null,null,true
TXPR,Pharr, TX,gpsmet,26.208499908447266,-98.18900299072266,39.119300842285156,-9999.0,null,null,null,true
RTFO3,RED BUTTE                        OR US,RAWS,43.53609848022461,-117.83470153808594,1359.4000244140625,-9999.0,null,null,null,true
STQI4,Meskwaki Settlement School Tama        KCCI-TV,snet,41.992618560791016,-92.64649963378906,256.0,-9999.0,null,null,null,true
AR220,KB6KJX Ellensburg                 WA US,APRSWXNET,46.99232864379883,-120.51399993896484,473.0,-9999.0,null,null,null,true
TACIN,TACOMA INDIAN HILL RESERVOIR     WA US WAAQ,utmesnet,47.29999923706055,-122.41000366210938,157.89999389648438,-9999.0,null,null,null,true
MBZH,Bozeman Pass I-90 MP 321.8       MT US MT DOT,utmesnet,45.66682052612305,-110.80394744873047,1752.0,-9999.0,null,null,null,true
ORSI1,Orofino School                   ID US MSOWFO,utmesnet,46.47999954223633,-116.23999786376953,324.6000061035156,-9999.0,null,null,null,true
SNOW4,SNOW SPRINGS CREEK               WY US,RAWS,41.41749954223633,-109.03610229492188,2301.199951171875,-9999.0,null,null,null,true
C6556,CW6556 Bellingham                 WA US,APRSWXNET,48.70832824707031,-122.50833129882812,56.099998474121094,-9999.0,null,null,null,true
C5225,CW5225 Houston                    TX US,APRSWXNET,29.723329544067383,-95.4146728515625,15.25,-9999.0,null,null,null,true
C5227,CW5227 Dripping Springs           TX US,APRSWXNET,30.263669967651367,-98.14949798583984,388.0,-9999.0,null,null,null,true
C6558,CW6558 South Mills                NC US,APRSWXNET,36.440330505371094,-76.29232788085938,2.0,-9999.0,null,null,null,true
C5229,CW5229 Glenwood                   IL US,APRSWXNET,41.5405387878418,-87.58856201171875,189.10000610351562,-9999.0,null,null,null,true
HUNT,HUNTINGTON NORTH                 UT US REC,utmesnet,39.339599609375,-110.96160125732422,1761.699951171875,-9999.0,null,null,null,true
C7890,CW7890 Parsons                    TN US,APRSWXNET,35.6496696472168,-88.12699890136719,152.39999389648438,-9999.0,null,null,null,true
TMFO3,TIMOTHY                          OR US,RAWS,43.242801666259766,-121.35310363769531,1859.0,-9999.0,null,null,null,true
AS549,KF4ORW-3 Dade City                FL US,APRSWXNET,28.350849151611328,-82.1903305053711,30.0,-9999.0,null,null,null,true
RHCM6,COVINGTON                        MS US,RAWS,31.74970054626465,-89.51640319824219,88.4000015258789,-9999.0,null,null,null,true
C6561,CW6561 Chicago                    IL US,APRSWXNET,41.950828552246094,-87.82666778564453,193.5,-9999.0,null,null,null,true
C6562,CW6562 Green Bay                  WI US,APRSWXNET,44.46784973144531,-88.02159881591797,181.39999389648438,-9999.0,null,null,null,true
C5231,CW5231 West Bay                      KY,APRSWXNET,19.383670806884766,-81.38182830810547,5.0,-9999.0,null,null,null,true
RDYD1,Reedy Point, DE,nosports,39.55799865722656,-75.572998046875,0.0,-9999.0,null,null,null,true
AS544,IT9UCS Catania                       IT,APRSWXNET,37.53017044067383,15.063170433044434,191.0,-9999.0,null,null,null,true
AR213,W4HSV Huntsville                  AL US,APRSWXNET,34.756168365478516,-86.6780014038086,229.0,-9999.0,null,null,null,true
AR210,N4IDX-7 Youngtown                 AL US,APRSWXNET,34.40782928466797,-87.39366912841797,295.0,-9999.0,null,null,null,true
AS541,KF4MSV Bristol                    TN US,APRSWXNET,36.55833053588867,-82.15666961669922,525.0,-9999.0,null,null,null,true
AS542,KI4MKI Telford                    TN US,APRSWXNET,36.19449996948242,-82.5530014038086,530.0,-9999.0,null,null,null,true
AS547,K4TD Harvest                      AL US,APRSWXNET,34.869998931884766,-86.72416687011719,254.5,-9999.0,null,null,null,true
AS545,NI4CE-11 Riverview                FL US,APRSWXNET,27.819669723510742,-82.26067352294922,35.79999923706055,-9999.0,null,null,null,true
AR215,SM2JQV Pitea                         SE,APRSWXNET,65.29316711425781,21.51317024230957,20.0,-9999.0,null,null,null,true
C6529,CW6529 Wingate                    TX US,APRSWXNET,32.04999923706055,-100.21666717529297,633.2000122070312,-9999.0,null,null,null,true
AS580,N1LMA Westerly                    RI US,APRSWXNET,41.39366912841797,-71.81466674804688,64.0,-9999.0,null,null,null,true
TNINE,SR 291 Nine Mile                 WA US WA DOT,utmesnet,47.777000427246094,-117.54399871826172,0.0,-9999.0,null,null,null,true
TACLS,S END NEIGHBORHOOD CENTER        WA US WAAQ,utmesnet,47.18629837036133,-122.45159912109375,103.5999984741211,-9999.0,null,null,null,true
AS583,KG4PID-15 Bear Creek              AL US,APRSWXNET,34.290828704833984,-87.70532989501953,258.0,-9999.0,null,null,null,true
AS584,KC2RCU Minetto                    NY US,APRSWXNET,43.395511627197266,-76.47205352783203,98.0,-9999.0,null,null,null,true
LTJC1,LITTLE TUJUNGA                   CA US,RAWS,34.29359817504883,-118.36080169677734,423.70001220703125,-9999.0,null,null,null,true
AR250,KA8SCP Westford                   MA US,APRSWXNET,42.61008071899414,-71.46697998046875,70.0999984741211,-9999.0,null,null,null,true
AR251,KB5MDH Kiowa                      KS US,APRSWXNET,37.01250076293945,-98.4854965209961,404.0,-9999.0,null,null,null,true
AS582,KB1CJP Noank                      CT US,APRSWXNET,41.32516860961914,-71.99333190917969,10.0,-9999.0,null,null,null,true
C6521,CW6521 Cornville                  AZ US,APRSWXNET,34.728389739990234,-111.9723129272461,1030.0,-9999.0,null,null,null,true
C6523,CW6523 Ewa Beach                  HI US,APRSWXNET,21.331329345703125,-158.0225067138672,30.0,-9999.0,null,null,null,true
C7857,CW7857 Dana Point                 CA US,APRSWXNET,33.48400115966797,-117.70149993896484,87.0,-9999.0,null,null,null,true
C7858,CW7858 Murcia                        ES,APRSWXNET,37.991668701171875,-1.1411700248718262,42.0,-9999.0,null,null,null,true
CRGC1,CORNING                          CA US,RAWS,39.938899993896484,-122.1697006225586,89.5999984741211,-9999.0,null,null,null,true
KMYJ,MEXICO                           MO US MODOT,NonFedAWOS,39.157501220703125,-91.8183364868164,250.89999389648438,-9999.0,null,null,null,true
RALR,Raleigh, NC,gpsmet,35.78689956665039,-78.63899993896484,174.56649780273438,-9999.0,null,null,null,true
TXTA,Taylor, TX,gpsmet,30.564199447631836,-97.44499969482422,173.96170043945312,-9999.0,null,null,null,true
AR245,K7HRT Greenacres                  WA US,APRSWXNET,47.61466979980469,-117.18350219726562,707.0,-9999.0,null,null,null,true
AS576,N5VRP-3 San Antonio               TX US,APRSWXNET,29.272600173950195,-98.32420349121094,193.89999389648438,-9999.0,null,null,null,true
AS577,K3YJP-4 Westminster               MD US,APRSWXNET,39.59086990356445,-77.07313537597656,195.0,-9999.0,null,null,null,true
AR243,K4TPD-5 Donalsonville             GA US,APRSWXNET,30.784500122070312,-84.86966705322266,35.0,-9999.0,null,null,null,true
AS574,W4JKJ-2 Jupiter                   FL US,APRSWXNET,26.928329467773438,-80.24299621582031,12.0,-9999.0,null,null,null,true
AS575,IW0DEG Vigarano Mainarda             IT,APRSWXNET,44.841941833496094,11.489870071411133,11.0,-9999.0,null,null,null,true
TTKA2,TATITLEK                         AK US SNOTEL,utmesnet,60.86000061035156,-146.67999267578125,15.199999809265137,-9999.0,null,null,null,true
AR244,K5ZXZ Texas City                  TX US,APRSWXNET,29.388669967651367,-94.93550109863281,3.0,-9999.0,null,null,null,true
AS578,N1SXL-1 Moosup                    CT US,APRSWXNET,41.7016716003418,-71.87750244140625,106.0,-9999.0,null,null,null,true
AS579,GW7ERI Chepstow                      UK,APRSWXNET,51.63933181762695,-2.663330078125,50.0,-9999.0,null,null,null,true
DPKW4,DEER PARK                        WY US SNOTEL,utmesnet,42.59000015258789,-108.9000015258789,2956.60009765625,-9999.0,null,null,null,true
LABL1,E Bank, Bayou LaBranche, LA,NOS-NWLON,30.049999237060547,-90.36830139160156,0.0,-9999.0,null,null,null,true
C5209,CW5209 Kingston Springs           TN US,APRSWXNET,36.06983184814453,-87.13333129882812,237.0,-9999.0,null,null,null,true
SUP3,Newberry, MI,gpsmet,46.30270004272461,-85.51300048828125,256.9070129394531,-9999.0,null,null,null,true
SUP2,Escabana, MI,gpsmet,45.7495002746582,-87.0739974975586,189.5695037841797,-9999.0,null,null,null,true
AS572,K2MFW Millville                   NJ US,APRSWXNET,39.387001037597656,-75.07967376708984,16.799999237060547,-9999.0,null,null,null,true
CCD,CANYONS - CONDOR                 UT US SNOWNET,utmesnet,40.689998626708984,-111.59400177001953,2742.89990234375,-9999.0,null,null,null,true
AS573,K0BSJ Excelsior Springs           MO US,APRSWXNET,39.374168395996094,-94.20950317382812,310.0,-9999.0,null,null,null,true
AR242,K2LGJ Buffalo                     NY US,APRSWXNET,42.97882843017578,-78.87300109863281,189.0,-9999.0,null,null,null,true
AS570,KC7EHF Houston                    TX US,APRSWXNET,29.586669921875,-95.11000061035156,6.699999809265137,-9999.0,null,null,null,true
AR240,K0CQW New London                  MN US,APRSWXNET,45.2996711730957,-94.9663314819336,366.0,-9999.0,null,null,null,true
AS571,KB3ONZ Hockessin                  DE US,APRSWXNET,39.76190185546875,-75.70990753173828,101.0,-9999.0,null,null,null,true
C6531,CW6531 Mead                       CO US,APRSWXNET,40.20832824707031,-104.9366683959961,1493.0,-9999.0,null,null,null,true
C7865,CW7865 Delavan                    IL US,APRSWXNET,40.37382888793945,-89.54949951171875,202.0,-9999.0,null,null,null,true
C5203,CW5203 Anchorage                  AK US,APRSWXNET,61.19166946411133,-149.95950317382812,15.0,-9999.0,null,null,null,true
C6533,CW6533 Hernando Beach             FL US,APRSWXNET,28.47450065612793,-82.6520004272461,4.0,-9999.0,null,null,null,true
C5205,CW5205 Ullerslev                     DK,APRSWXNET,55.35816955566406,10.654000282287598,22.0,-9999.0,null,null,null,true
RSCN2,ROCK SPRING CREEK                NV US,RAWS,41.64310073852539,-114.4375,1645.9000244140625,-9999.0,null,null,null,true
C7869,CW7869 Austin                     TX US,APRSWXNET,30.20800018310547,-97.87200164794922,268.0,-9999.0,null,null,null,true
C5204,CW5204 Harpers Ferry              WV US,APRSWXNET,39.339229583740234,-77.78907012939453,131.0,-9999.0,null,null,null,true
C6538,CW6538 Cattolica                     IT,APRSWXNET,43.966670989990234,12.733329772949219,20.0,-9999.0,null,null,null,true
C7866,CW7866 Ammannsville               TX US,APRSWXNET,29.795129776000977,-96.85133361816406,127.0,-9999.0,null,null,null,true
C5207,CW5207 Williamsburg               VA US,APRSWXNET,37.31726837158203,-76.75079345703125,29.0,-9999.0,null,null,null,true
CCS,Clear Creek Summit I70           UT US UTAH DOT,utmesnet,38.590999603271484,-112.49440002441406,2165.0,-9999.0,null,null,null,true
TXSA,San Angelo, TX,gpsmet,31.4143009185791,-100.4729995727539,590.2348022460938,-9999.0,null,null,null,true
C5210,CW5210 Farmington                 UT US,APRSWXNET,40.98733139038086,-111.92867279052734,1288.0,-9999.0,null,null,null,true
C6540,CW6540 El Paso                    TX US,APRSWXNET,31.79216957092285,-106.43717193603516,1168.989990234375,-9999.0,null,null,null,true
AR235,K6SUD Hesperia                    CA US,APRSWXNET,34.30683135986328,-117.29316711425781,985.0,-9999.0,null,null,null,true
AS566,KE7FYF-5 Sparks                   NV US,APRSWXNET,39.63100051879883,-119.7281723022461,1379.0,-9999.0,null,null,null,true
TXSM,San Marcos, TX,gpsmet,29.877899169921875,-97.90299987792969,183.2615966796875,-9999.0,null,null,null,true
AR232,KC7RJK Eugene                     OR US,APRSWXNET,44.10776901245117,-123.14920806884766,126.5,-9999.0,null,null,null,true
AS563,W4ADI Virginia Beach              VA US,APRSWXNET,36.832950592041016,-76.05433654785156,2.0,-9999.0,null,null,null,true
TEN,TEAD NORTH                       UT US TOOELE,utmesnet,40.56439971923828,-112.39936065673828,1371.9000244140625,-9999.0,null,null,null,true
AS569,KF4YYH-2 Reedy                    WV US,APRSWXNET,38.88618850708008,-81.3949966430664,228.60000610351562,-9999.0,null,null,null,true
AS567,G7ITT Appleby-in-Westmorland         UK,APRSWXNET,54.62950134277344,-2.4908299446105957,167.0,-9999.0,null,null,null,true
PIBC1,BLACK DIAMOND                    CA US,RAWS,37.95000076293945,-121.8843994140625,487.70001220703125,-9999.0,null,null,null,true
SVFO3,SILVER BUTTE                     OR US,RAWS,42.8588981628418,-123.37830352783203,1211.0,-9999.0,null,null,null,true
AR237,KC5PWQ Keene                      TX US,APRSWXNET,32.37617111206055,-97.3011703491211,239.60000610351562,-9999.0,null,null,null,true
DOHS2,BAKER PARK                       SD US,RAWS,43.97919845581055,-103.42500305175781,1424.5999755859375,-9999.0,null,null,null,true
TER,Terreton,arlfrd,43.84164810180664,-112.41830444335938,1460.5999755859375,-9999.0,null,null,null,true
TES,TEAD SOUTH                       UT US TOOELE,utmesnet,40.3299446105957,-112.40802764892578,1567.0,-9999.0,null,null,null,true
HLYM6,DELTA RD                         MS US,RAWS,32.810298919677734,-90.7844009399414,28.299999237060547,-9999.0,null,null,null,true
KESC1,SACRAMENTO RVR BLO KESWICK DAM W CA US CNRFC,utmesnet,40.60166931152344,-122.44332885742188,146.3000030517578,-9999.0,null,null,null,true
UTCC2,UTE CREEK                        CO US SNOTEL,utmesnet,37.61000061035156,-105.37000274658203,3246.10009765625,-9999.0,null,null,null,true
SQFI1,SQUAW FLAT                       ID US SNOTEL,utmesnet,44.77000045776367,-116.25,1902.0,-9999.0,null,null,null,true
C5410,CW5410 RoccaDiMezzo                  IT,APRSWXNET,42.20389175415039,13.513059616088867,1293.0,-9999.0,null,null,null,true
TXVA,Victoria, TX,gpsmet,28.83489990234375,-96.91000366210938,37.15420150756836,-9999.0,null,null,null,true
C5412,CW5412 Oshkosh                    WI US,APRSWXNET,44.009498596191406,-88.5183334350586,225.60000610351562,-9999.0,null,null,null,true
C5411,CW5411 Ryomgaard                     DK,APRSWXNET,56.37950134277344,10.492830276489258,20.0,-9999.0,null,null,null,true
C6744,CW6744 Jasper                     GA US,APRSWXNET,34.53116989135742,-84.41767120361328,504.3999938964844,-9999.0,null,null,null,true
C5416,CW5416 Canby                      OR US,APRSWXNET,45.27967071533203,-122.68766784667969,30.5,-9999.0,null,null,null,true
C6746,CW6746 Cherry Valley              MA US,APRSWXNET,42.24509811401367,-71.86621856689453,252.0,-9999.0,null,null,null,true
BNTC1,BEAUMONT                         CA US,RAWS,33.930599212646484,-116.939697265625,816.9000244140625,-9999.0,null,null,null,true
AR429,KD5NFW Midlothian                 TX US,APRSWXNET,32.493831634521484,-96.96299743652344,230.10000610351562,-9999.0,null,null,null,true
FRVM3,Fall River, MA,nosports,41.70500183105469,-71.16300201416016,0.0,-9999.0,null,null,null,true
AR427,AH6GR Maui                        HI US,APRSWXNET,20.877830505371094,-156.5186767578125,264.6000061035156,-9999.0,null,null,null,true
AS759,K7CSO Bloomington                 ID US,APRSWXNET,42.189170837402344,-111.40371704101562,1828.0,-9999.0,null,null,null,true
AR428,KF4YYH Largo                      FL US,APRSWXNET,27.889829635620117,-82.73217010498047,5.5,-9999.0,null,null,null,true
MLKH1,MOLOKAI 1                        HI US,RAWS,21.114999771118164,-156.94749450683594,833.0,-9999.0,null,null,null,true
TWARD,Warden Interchange               WA US WA DOT,utmesnet,47.084999084472656,-119.00599670410156,346.8999938964844,-9999.0,null,null,null,true
AS752,N1HOS Bellows Falls               VT US,APRSWXNET,43.127498626708984,-72.4520034790039,137.1999969482422,-9999.0,null,null,null,true
AS753,KI7ZC Sequin                      WA US,APRSWXNET,48.03499984741211,-123.18599700927734,450.0,-9999.0,null,null,null,true
AS756,G3YJQ Plymouth Devon                 UK,APRSWXNET,50.40705871582031,-4.189939975738525,62.0,-9999.0,null,null,null,true
AS757,G4ZJH Beaminster                     UK,APRSWXNET,52.220829010009766,1.4888299703598022,100.0,-9999.0,null,null,null,true
AR426,K4BS Dahlonega                    GA US,APRSWXNET,34.55699920654297,-84.29216766357422,554.5,-9999.0,null,null,null,true
AS754,7N4TWL-12 Tokyo                      JP,APRSWXNET,35.58266830444336,139.67233276367188,12.0,-9999.0,null,null,null,true
AGUU1,AGUA CANYON                      UT US SNOTEL,utmesnet,37.52000045776367,-112.2699966430664,2712.699951171875,-9999.0,null,null,null,true
AS755,KD0AYE Hiawatha                   KS US,APRSWXNET,39.86579895019531,-95.52738952636719,331.0,-9999.0,null,null,null,true
PKFO3,BUCKEYE                          OR US,RAWS,43.03609848022461,-122.6552963256836,998.2000122070312,-9999.0,null,null,null,true
C6752,CW6752 Fremont                    OH US,APRSWXNET,41.29999923706055,-83.0999984741211,189.89999389648438,-9999.0,null,null,null,true
C6751,CW6751 Vrhnika                       SL,APRSWXNET,45.97616958618164,14.27750015258789,331.0,-9999.0,null,null,null,true
C6754,CW6754 Keene                      CA US,APRSWXNET,35.24800109863281,-118.61116790771484,877.0,-9999.0,null,null,null,true
OSCM8,OSCAR                            MT US,RAWS,47.32830047607422,-108.92500305175781,1086.5999755859375,-9999.0,null,null,null,true
C6753,CW6753 Murrieta                   CA US,APRSWXNET,33.55099868774414,-117.21482849121094,333.79998779296875,-9999.0,null,null,null,true
C5425,CW5425 Tenafly                    NJ US,APRSWXNET,40.914669036865234,-73.97750091552734,24.799999237060547,-9999.0,null,null,null,true
CEN,CENTERVILLE                      UT US UTAH DOT,utmesnet,40.95000076293945,-111.89099884033203,1286.300048828125,-9999.0,null,null,null,true
C6758,CW6758 Castle Rock                WA US,APRSWXNET,46.29999923706055,-122.9000015258789,76.19999694824219,-9999.0,null,null,null,true
C5427,CW5427 Hermosa                    SD US,APRSWXNET,43.749168395996094,-103.24382781982422,1095.800048828125,-9999.0,null,null,null,true
TXTY,Tyler, TX,gpsmet,32.24959945678711,-95.39399719238281,146.4219970703125,-9999.0,null,null,null,true
C5426,CW5426 Montague                   MI US,APRSWXNET,43.421669006347656,-86.35832977294922,209.0,-9999.0,null,null,null,true
AR418,AJ5C Harrison                     AR US,APRSWXNET,36.2628288269043,-93.14600372314453,390.0,-9999.0,null,null,null,true
AS749,K4OZS-11 Ocala                    FL US,APRSWXNET,29.16183090209961,-82.18000030517578,22.0,-9999.0,null,null,null,true
C5430,CW5430 North Hills                PA US,APRSWXNET,40.1162109375,-75.16532897949219,87.0,-9999.0,null,null,null,true
TWAST,Waste-Energy Plant               WA US WA DOT,utmesnet,47.626800537109375,-117.5072021484375,0.0,-9999.0,null,null,null,true
AS741,AD7CQ Kennewick                   WA US,APRSWXNET,46.217498779296875,-119.23750305175781,153.0,-9999.0,null,null,null,true
AR410,WB3W-11 Schnecksville             PA US,APRSWXNET,40.679168701171875,-75.60549926757812,211.0,-9999.0,null,null,null,true
AS742,AE4BP-4 Columbia                  SC US,APRSWXNET,34.149391174316406,-80.91629791259766,108.0,-9999.0,null,null,null,true
AS740,AB4GS Murrayville                 GA US,APRSWXNET,34.45582962036133,-83.86183166503906,333.0,-9999.0,null,null,null,true
AS745,N9IVQ-13 Valparaiso               IN US,APRSWXNET,41.473331451416016,-87.04866790771484,241.0,-9999.0,null,null,null,true
AS746,KB2TYG Nett Lake                  MN US,APRSWXNET,48.08449935913086,-93.23367309570312,0.0,-9999.0,null,null,null,true
AR415,K1HU Wellesley                    MA US,APRSWXNET,42.31050109863281,-71.24749755859375,50.0,-9999.0,null,null,null,true
AR412,KL1SF-7 Healy                     AK US,APRSWXNET,63.8745002746582,-148.99583435058594,420.6000061035156,-9999.0,null,null,null,true
ALCA2,Alaska Hwy @ Canadian Border MP 1221.8,akdotroad,62.620540618896484,-141.00750732421875,602.0,-9999.0,null,null,null,true
AS743,CT2JAY-11 Buarcos                    PT,APRSWXNET,40.341331481933594,-8.588330268859863,25.0,-9999.0,null,null,null,true
OVLW1,OROVILLE                         WA US,RAWS,48.96310043334961,-119.49169921875,414.5,-9999.0,null,null,null,true
AR413,W5JWW Sumner                      MS US,APRSWXNET,33.971168518066406,-90.36699676513672,46.29999923706055,-9999.0,null,null,null,true
FERI1,FENN                             ID US,RAWS,46.099998474121094,-115.53469848632812,463.29998779296875,-9999.0,null,null,null,true
C6727,CW6727 Gore                       VA US,APRSWXNET,39.274169921875,-78.29633331298828,267.0,-9999.0,null,null,null,true
C6726,CW6726 Winchester                    UK,APRSWXNET,51.06972885131836,-1.3399499654769897,84.0,-9999.0,null,null,null,true
MRLV1,MARLBORO                         VT US,RAWS,42.837799072265625,-72.73500061035156,513.9000244140625,-9999.0,null,null,null,true
SDSF,Sioux Falls, SD,gpsmet,43.73379898071289,-96.62200164794922,485.8384094238281,-9999.0,null,null,null,true
C6729,CW6729 Chestertown                NY US,APRSWXNET,43.653831481933594,-73.80082702636719,840.0,-9999.0,null,null,null,true
C6728,CW6728 Frazier Park               CA US,APRSWXNET,34.836830139160156,-119.07599639892578,1760.0,-9999.0,null,null,null,true
HHMC1,HIGHLAND MEADOW NEAR KIT CARSON  CA US CNRFC,utmesnet,38.625,-120.13333129882812,2377.39990234375,-9999.0,null,null,null,true
AR450,WB0RXX Montevideo                 MN US,APRSWXNET,44.9398307800293,-95.71566772460938,312.20001220703125,-9999.0,null,null,null,true
BCTA2,BIRCH CREEK ABOVE TWELVEMILE CREEK NEARUSGS,HADS,65.39250183105469,-145.71249389648438,604.010986328125,-9999.0,null,null,null,true
AS782,KB7HFS Tulalip                    WA US,APRSWXNET,48.0407600402832,-122.25346374511719,64.5999984741211,-9999.0,null,null,null,true
AS780,VE2DX Laval                       PQ CA,APRSWXNET,45.52050018310547,-73.80082702636719,30.0,-9999.0,null,null,null,true
RYCI1,REYNOLDS CREEK                   ID US SCAN,utmesnet,43.06999969482422,-116.75,1706.9000244140625,-9999.0,null,null,null,true
RDX02,Radiometrics Corporation, Boulder, CO  RDX,RDMTR,40.025821685791016,-105.24549865722656,1592.333984375,-9999.0,null,null,null,true
CFO,CEDAR FORT                       UT US TOOELE,utmesnet,40.309165954589844,-112.101318359375,1585.0,-9999.0,null,null,null,true
C6725,CW6725 Waterloo                      CA,APRSWXNET,43.512081146240234,-80.51605224609375,345.0,-9999.0,null,null,null,true
B2119,Missao Icana,PCDINPE,1.0700000524520874,-67.5,84.0,-9999.0,null,null,null,true
B2118,Porto Seguro,PCDINPE,-1.8200000524520874,-66.5,65.0,-9999.0,null,null,null,true
AR449,N4ZOI Cheraw                      SC US,APRSWXNET,34.70417022705078,-79.89949798583984,45.70000076293945,-9999.0,null,null,null,true
LMCN2,LAMANCE CREEK                    NV US SNOTEL,utmesnet,41.52000045776367,-117.62999725341797,1828.800048828125,-9999.0,null,null,null,true
LTHC1,LOST HORSE                       CA US,RAWS,34.017799377441406,-116.18779754638672,1280.199951171875,-9999.0,null,null,null,true
AS774,K4TQL Cartersville                GA US,APRSWXNET,34.18267059326172,-84.77667236328125,280.0,-9999.0,null,null,null,true
AS775,KP4LA Trujillo Alto               PR US,APRSWXNET,18.35869026184082,-66.02777862548828,82.0,-9999.0,null,null,null,true
B2110,Seringal Fortaleza,PCDINPE,-7.679999828338623,-66.9000015258789,110.0,-9999.0,null,null,null,true
AS772,KC0NWS Kansas City                MO US,APRSWXNET,39.27750015258789,-94.66349792480469,320.0,-9999.0,null,null,null,true
AS773,KC7MGR High Camp                  ID US,APRSWXNET,45.863670349121094,-116.12283325195312,1862.300048828125,-9999.0,null,null,null,true
B2112,Labrea,PCDINPE,-7.25,-64.80000305175781,67.0,-9999.0,null,null,null,true
B2115,Conceicao,PCDINPE,-6.53000020980835,-64.30000305175781,62.0,-9999.0,null,null,null,true
AS778,W3HOA-2 Berwyn                    PA US,APRSWXNET,40.011070251464844,-75.44222259521484,137.1999969482422,-9999.0,null,null,null,true
AS779,KB0JUL Dallas Center              IA US,APRSWXNET,41.688331604003906,-93.96717071533203,335.0,-9999.0,null,null,null,true
AS776,KK6KU Rosamond                    CA US,APRSWXNET,34.86867141723633,-118.20916748046875,737.0,-9999.0,null,null,null,true
B2117,Manacapuru,PCDINPE,-3.309999942779541,-60.599998474121094,18.0,-9999.0,null,null,null,true
AR445,N4XI-9 Henderson                  KY US,APRSWXNET,37.88800048828125,-87.54367065429688,122.0,-9999.0,null,null,null,true
AR446,N4XI-3 Evansville                 IN US,APRSWXNET,38.03200149536133,-87.5790023803711,118.0,-9999.0,null,null,null,true
AS777,K2YYD Syosset                     NY US,APRSWXNET,40.788970947265625,-73.50640106201172,58.0,-9999.0,null,null,null,true
C6738,CW6738 South Whitley              IN US,APRSWXNET,41.02859878540039,-85.55580139160156,278.0,-9999.0,null,null,null,true
C5406,CW5406 Purcellville               VA US,APRSWXNET,39.15782928466797,-77.69917297363281,161.5,-9999.0,null,null,null,true
C6739,CW6739 Butte (Palmer)             AK US,APRSWXNET,61.533321380615234,-148.9947052001953,27.0,-9999.0,null,null,null,true
AS770,G7NPW Chaddesden; Derby              UK,APRSWXNET,52.93532943725586,-1.4364999532699585,63.0,-9999.0,null,null,null,true
QSHA3,STRAY HORSE                      AZ US,RAWS,33.55220031738281,-109.31639862060547,2418.60009765625,-9999.0,null,null,null,true
AS771,KC2QPO Middletown                 NJ US,APRSWXNET,40.40633010864258,-74.10967254638672,21.0,-9999.0,null,null,null,true
WGRM8,WEST GLACIER                     MT US,RAWS,48.51060104370117,-113.99420166015625,975.4000244140625,-9999.0,null,null,null,true
PFHC1,PACIFIC HOUSE                    CA US CNRFC,utmesnet,38.75611114501953,-120.50028228759766,1048.5,-9999.0,null,null,null,true
C6730,CW6730 Tampa                      FL US,APRSWXNET,27.90782928466797,-82.447998046875,2.0,-9999.0,null,null,null,true
TXWA,Waco, TX,gpsmet,31.577699661254883,-97.11100006103516,128.5758056640625,-9999.0,null,null,null,true
C5400,CW5400 Hayti                      MO US,APRSWXNET,36.233951568603516,-89.74976348876953,80.0,-9999.0,null,null,null,true
C6734,CW6734 Reform                     OH US,APRSWXNET,40.150169372558594,-82.24166870117188,307.0,-9999.0,null,null,null,true
C5402,CW5402 Stavanger                     NO,APRSWXNET,58.939178466796875,5.5921502113342285,30.0,-9999.0,null,null,null,true
C5404,CW5404 Dallas                     OR US,APRSWXNET,44.917999267578125,-123.29582977294922,86.0,-9999.0,null,null,null,true
JUFW1,JUNIPER DUNES                    WA US,RAWS,46.3577995300293,-118.86859893798828,289.6000061035156,-9999.0,null,null,null,true
C6735,CW6735 Des Moines                 IA US,APRSWXNET,41.60866928100586,-93.66316986083984,272.0,-9999.0,null,null,null,true
NCKC2,NEEDLE CREEK                     CO US,RAWS,38.389400482177734,-106.53079986572266,2741.10009765625,-9999.0,null,null,null,true
STORM,Storm Peak Observatory           CO US DRI,utmesnet,40.45000076293945,-106.7300033569336,3209.89990234375,-9999.0,null,null,null,true
B2107,Rio Branco (6),PCDINPE,-9.970000267028809,-67.80000305175781,135.0,-9999.0,null,null,null,true
STP40,Stevens Pass-Schmidt Haus        WA US NWAVAL,utmesnet,47.75,-121.08999633789062,1218.9000244140625,-9999.0,null,null,null,true
AR438,N0RGA-2 Tea                       SD US,APRSWXNET,43.44432830810547,-96.83733367919922,454.79998779296875,-9999.0,null,null,null,true
AS769,KE5QGG Alto                       NM US,APRSWXNET,33.39366912841797,-105.64550018310547,2180.0,-9999.0,null,null,null,true
B2109,Fazenda Borangaba,PCDINPE,-7.550000190734863,-67.5,112.0,-9999.0,null,null,null,true
TXWF,Wichita Falls, TX,gpsmet,33.85390090942383,-98.50599670410156,307.8653869628906,-9999.0,null,null,null,true
LMCO3,LITTLE MCCOY CREEK               OR US,RAWS,42.708099365234375,-118.51000213623047,1548.4000244140625,-9999.0,null,null,null,true
AS764,WA7FFM-3 West Mountain            UT US,APRSWXNET,40.090110778808594,-111.8219985961914,2072.60009765625,-9999.0,null,null,null,true
B2102,Seringal Sao Jose,PCDINPE,-9.319999694824219,-68.69999694824219,146.0,-9999.0,null,null,null,true
AR430,N4JDB-1 Youngtown                 AL US,APRSWXNET,34.43965148925781,-87.38086700439453,212.0,-9999.0,null,null,null,true
AS761,KA0SOD Independence               MO US,APRSWXNET,39.080238342285156,-94.40483093261719,307.79998779296875,-9999.0,null,null,null,true
AS762,W1HSR Waterbury                   CT US,APRSWXNET,41.549171447753906,-72.95999908447266,205.6999969482422,-9999.0,null,null,null,true
AS767,W8KQB Pelkie                      MI US,APRSWXNET,46.865501403808594,-88.6478271484375,274.29998779296875,-9999.0,null,null,null,true
AR436,N0KTA-2 Mulvane                   KS US,APRSWXNET,37.47766876220703,-97.24017333984375,381.0,-9999.0,null,null,null,true
